formatted_address,locationStr,lat,long,params.geo
"Downey, CA 90240, USA","downey, ca 90240, usa",33.957,-118.121,us
"Brush, CO 80723, USA","80723, colorado, united states",40.195,-103.59,us
"Utah, USA","utah, united states",39.321,-111.094,us
"Beckley, WV 25801, USA",25801,37.8,-81.23,"us,us"
"Cliffside Park, NJ 07010, USA","07010, us",40.822,-73.986,us
"Yantic, Norwich, CT, USA","yantic, connecticut, united states",41.56,-72.127,us
"Vincennes, IN 47591, USA","vincennes, in",38.677,-87.529,us
South East Asia,south east,-2.218,115.663,undefined
"Howells, NE 68641, USA","68641, nebraska, united states",41.725,-97.028,us
"Lee's Summit, MO 64082, USA","64082, missouri, united states",38.853,-94.408,us
"Lake Park, IA 51347, USA","51347, iowa, united states",43.417,-95.331,us
"St. Louis, MO 63113, USA",63113,38.661,-90.246,"us,us"
"Stony Plain, AB, Canada","stony plain, ca",53.529,-114.002,ca
"Banff National Park, Alberta T0L, Canada","banff national park, alberta, canada",51.497,-115.928,ca
"Abingdon, VA, USA","abingdon, va, usa",36.71,-81.977,us
"Maple Plain, MN 55359, USA","55359, minnesota, united states",44.995,-93.73,us
"Addison, AL 35540, USA","35540, alabama, united states",34.232,-87.162,us
"Jericho, NY 11753, USA","11753, new york, united states",40.785,-73.542,us
"Washington, DC 20009, USA","20009, us",38.919,-77.036,us
"Mt Cobb, PA 18436, USA","mount cobb, pennsylvania, united states",41.413,-75.493,us
"Fort McMurray, AB, Canada","fort mcmurray, alberta, canada",56.727,-111.379,ca
"Eaglesham, Glasgow G76, UK","eaglesham, gb",55.739,-4.27,gb
"Great Shelford, Cambridge, UK","great shelford, eng",52.147,0.138,gb
"London Borough of Havering, UK","london borough of havering, uk",51.578,0.212,gb
"Langdon, AB T0J, Canada","langdon, ab t0j, canada",50.973,-113.68,ca
"Blackshear, GA 31516, USA","blackshear, georgia, united states",31.306,-82.242,us
"Aurora, NE 68818, USA","68818, nebraska, united states",40.821,-98.025,us
"Swanley, UK","swanley, kent, england, united kingdom",51.397,0.177,gb
"Glenshaw, PA 15116, USA","15116, pennsylvania, united states",40.525,-79.947,us
"Estero, FL 33928, USA","33928, us",26.427,-81.724,us
"Loganville, GA 30052, USA","loganville, georgia, united states",33.839,-83.901,us
"Miramar, FL, USA","miramar, fl",25.986,-80.304,us
"Grande Prairie, AB T8X, Canada","t8x, ca",55.172,-118.759,ca
"Wimberley, TX 78676, USA","78676, texas, united states",30.021,-98.156,us
"Tennerton, WV 26201, USA","26201, us",38.952,-80.232,us
"Forest Hills, Queens, NY 11375, USA","forest hills, us",40.718,-73.845,us
"Laredo, TX 78040, USA","laredo, tx 78040, usa",27.517,-99.512,us
"Purfleet, UK","purfleet, uk",51.487,0.243,gb
"Le Goulet, NB, Canada","le goulet, ca",47.706,-64.713,ca
"Saltash, UK","saltash, uk",50.409,-4.216,gb
"Mumbai, Maharashtra 400083, India","400083, maharashtra, india",19.117,72.937,us
"Parkland, WA, USA","parkland, washington, united states",47.155,-122.434,us
"Canton, OH 44703, USA","44703, ohio, united states",40.81,-81.381,us
"Bay St Louis, MS, USA",bay st. louis,30.309,-89.33,"us,us"
"Knoxville, TN 37916, USA","37916, tennessee, united states",35.954,-83.928,us
"Batesville, MS 38606, USA","batesville, mississippi, united states",34.311,-89.944,us
"Springfield, MO 65810, USA","65810, missouri, united states",37.112,-93.309,us
"Bridgeport, TX 76426, USA","76426, texas, united states",33.168,-97.85,us
"Walden, TN 37377, USA","37377, tennessee, united states",35.123,-85.344,us
"Duncan, OK, USA",duncan,34.502,-97.958,"us,us"
"Texarkana, TX, USA","texarkana, tx 75501, usa",33.425,-94.048,us
"Lilburn, GA 30047, USA","lilburn, ga 30047, usa",33.89,-84.143,"us,us"
"Caledon, 7230, South Africa","caledon, 7230, south africa",-34.233,19.432,za
"Martinsville, VA 24112, USA","martinsville va, us",36.692,-79.873,us
"Waterloo, ON N2K, Canada","waterloo, on n2k, canada",43.495,-80.483,ca
"Euclid, MN 56722, USA","56722, minnesota, united states",47.987,-96.658,us
"Bernal Heights, San Francisco, CA, USA","bernal heights, san francisco, ca, usa",37.739,-122.415,us
"Richmond, VA 23226, USA","23226, virginia, united states",37.574,-77.522,us
"Raleigh, NC, USA","raleigh nc, us",35.78,-78.638,us
"Orlando, FL 32829, USA","32829, florida, united states",28.478,-81.246,us
"Pembroke, ON, Canada","pembroke, ca",45.827,-77.111,ca
"Nevada, USA","nevada, us",38.803,-116.419,us
"Alpharetta, GA 30005, USA","30005, us",34.095,-84.217,us
"Naples, FL 34117, USA","34117 florida, united states",26.194,-81.538,undefined
"Peterhead, UK","peterhead, aberdeenshire, scotland, united kingdom",57.508,-1.784,gb
"Scotland, UK",scotland uk,56.491,-4.203,undefined
"Malibu, CA 90265, USA","90265, california, united states",34.062,-118.836,us
"Richland, NE 68601, USA","68601, us",41.489,-97.308,us
"Paradise, UT 84328, USA","84328, utah, united states",41.504,-111.785,us
"Port St. Lucie, FL 34983, USA","port st. lucie, fl 34983, usa",27.321,-80.355,us
"Bruce, MS 38915, USA","38915, mississippi, united states",34.04,-89.342,us
"Helena, MT, USA","helena, mt",46.589,-112.039,us
"North Las Vegas, NV 89085, USA","89085, nevada, united states",36.31,-115.196,us
"Covington, GA 30015, USA","30015, us",33.6,-83.86,us
"Nevada, MO 64772, USA","nevada, mo",37.839,-94.355,us
"Fredericksburg, VA 22401, USA","fredericksburg virginia 22408, us",38.303,-77.461,us
"Highspire, PA 17034, USA","highspire, pa 17034, usa",40.208,-76.787,us
"Stanardsville, VA 22973, USA","22973, virginia, united states",38.312,-78.452,us
"Eastover, SC 29044, USA","29044, south carolina, united states",33.912,-80.699,us
"Mesa, AZ 85206, USA","85206, united states",33.395,-111.702,undefined
"Washington, DC 20008, USA","20008, district of columbia, united states",38.945,-77.062,us
"Panevėžys County, Lithuania","panevezys county, gb",55.975,25.079,gb
"Gqeberha, South Africa","port elizaberth, za",-33.961,25.602,za
"Glide, OR 97443, USA","97443, oregon, united states",43.208,-122.873,us
"Toronto, ON, Canada","toronto ontario, ca",43.653,-79.383,ca
"Sardis City, AL 35956, USA","35956, alabama, united states",34.159,-86.114,us
"Morehead City, NC 28557, USA","28557, us",34.739,-76.745,us
"Highspire, PA 17034, USA","17034, pennsylvania, united states",40.208,-76.787,us
"North Las Vegas, NV 89084, USA","89084, us",36.29,-115.18,us
"San Antonio, TX 78211, USA","san antonio, tx 78211, usa",29.346,-98.567,us
"Chesterfield, VA 23838, USA","23838, virginia, united states",37.305,-77.606,us
"Carlyle, IL 62231, USA","carlyle, il 62231, usa",38.61,-89.373,us
"Louis Trichardt, South Africa",louis trichardt south africa,-23.046,29.905,undefined
"Mead, WA 99021, USA","99021, washington, united states",47.858,-117.19,us
"Manikganj District, Bangladesh","manikganj district, dhaka division, bangladesh",23.862,90,us
"Ashbourne DE6, UK","ashbourne de6, uk",53.017,-1.732,gb
"Clifton, NJ 07011, USA","clifton, nj 07011, usa",40.881,-74.142,us
"Trichardt, 2300, South Africa","trichardt, mpumalanga, south africa",-26.484,29.223,za
"Manzini, Eswatini","manzini, eswatini",-26.508,31.371,undefined
"Sarasota, FL 34238, USA","34238, us",27.241,-82.464,us
"Hawthorne, CA 90250, USA","90250, us",33.913,-118.352,us
"New Milford, CT, USA","new milford, connecticut, united states",41.577,-73.409,us
"Taylorsville, KY 40071, USA","taylorsville, kentucky, united states",38.032,-85.342,us
"Devers, TX 77538, USA","77538, texas, united states",30.012,-94.542,us
"Bentonia, MS 39040, USA","39040, mississippi, united states",32.65,-90.431,us
"Albuquerque, NM 87108, USA","albuquerque, nm 87108, usa",35.073,-106.576,us
"Owasso, OK 74055, USA","74055, us",36.273,-95.835,us
"Ingleside, TX 78362, USA","ingleside, tx 78362, usa",27.887,-97.233,us
"Richmond, UT 84333, USA","richmond, utah, united states",41.923,-111.814,us
"Montgomery, AL 36108, USA","36108, alabama, united states",32.329,-86.439,us
"Chattanooga, TN 37416, USA","37416, us",35.086,-85.179,us
"Woodley, Reading, UK","woodley, reading, uk",51.452,-0.903,gb
"Daytona Beach, FL 32124, USA","32124, florida, united states",29.194,-81.142,us
"Meadow Vista, CA 95722, USA","95722, california, united states",38.999,-121.022,us
"Collinsville, VA, USA","collinsville va, us",36.715,-79.915,us
"Lilburn, GA 30047, USA",30047,33.868,-84.112,"us,us"
"Miramichi, NB, Canada","miramichi, nb e1n, canada",47.03,-65.506,ca
"Detroit, MI, USA","detroit michigan, us",42.331,-83.046,us
"Victoria Rd, Earby, Barnoldswick BB18 6UR, UK",bb186ur ,53.916,-2.145,undefined
"Herndon, PA 17830, USA","17830, pennsylvania, united states",40.67,-76.791,us
"Rockwall, TX, USA","rockwall, tx",32.909,-96.45,us
"Burkburnett, TX 76354, USA","burkburnett, texas, united states",34.098,-98.571,us
"North York, ON M9M, Canada","north york, on m9m, canada",43.725,-79.532,ca
"Lake Delton, WI, USA","lake delton, wisconsin, united states",43.601,-89.794,us
"Eugene, OR 97403, USA","eugene, or 97403, usa",44.035,-123.047,us
"Webster, TX, USA","webster, texas, united states",29.538,-95.118,us
"Falkirk, UK","falkirk, scotland, united kingdom",56.002,-3.784,us
"Indianapolis, IN, USA","indianapolis, us",39.768,-86.158,us
"El Reno, OK, USA","el reno, ok 73036, usa",35.532,-97.955,us
"East Lake, Atlanta, GA, USA",east lake,33.748,-84.3,"us,us"
"Leitchfield, KY 42754, USA","leitchfield, kentucky, united states",37.48,-86.294,us
"Raleigh, NC, USA","raleigh, nc, usa",35.78,-78.638,us
"San Gabriel, CA, USA","san gabriel, california, united states",34.096,-118.106,us
"Natchitoches, LA, USA","natchitoches, louisiana, united states",31.761,-93.086,us
"Castleton, Sherborne DT9 3DS, UK","castleton, sherborne dt9, uk",50.949,-2.507,gb
"White Deer, TX 79097, USA","79097, texas, united states",35.46,-101.184,us
"Bennington, VT 05201, USA","bennington, vermont, united states",42.878,-73.197,us
"Garw Valley, UK","garw valley, uk",51.603,-3.58,gb
"Sukkur, Sindh, Pakistan","sukkur, sindh, pakistan",27.724,68.823,us
"Yorkshire, UK",yorkshire uk,53.959,-1.079,undefined
"Charleston, SC, USA",charleston sc s,32.776,-79.931,undefined
"2780 Oeiras, Portugal","oeiras, gb",38.697,-9.315,gb
"Ottawa County, OH, USA","ottawa county, ohio, united states",41.627,-82.993,us
"Wesselsbron, 9680, South Africa","wesselbron, free, south africa",-27.845,26.366,za
"Bracebridge, ON, Canada","bracebridge, ca",45.039,-79.308,ca
"Reeds, MO 64859, USA","64859, missouri, united states",37.117,-94.172,us
"Miami, FL 33129, USA","33129, florida, united states",25.756,-80.206,us
"Troy, OH 45373, USA","troy, oh 45373, usa",40.039,-84.203,us
"Gloucester, MA 01930, USA","gloucester, ma 01930, usa",42.619,-70.681,us
"Grand Prairie, TX 75050, USA","grand prairie, tx 75050, usa",32.781,-97.018,us
"Silver Springs, NV, USA","silver springs, nevada, united states",39.415,-119.225,us
"Medford, MN 55049, USA","55049, minnesota, united states",44.173,-93.248,us
"Bow Island, AB T0K 0G0, Canada","bow island, alberta, canada",49.867,-111.379,ca
"Tacoma, WA 98404, USA","tacoma, wa 98404, usa",47.211,-122.414,us
"Bishop's Caundle, Sherborne DT9, UK","bishops caundle, gb",50.914,-2.436,gb
"Manzini, Eswatini","manzini, manzini, eswatini",-26.508,31.371,za
"Brooklyn, NY 11229, USA","brooklyn, ny 11229, usa",40.599,-73.945,us
"Barnstaple, UK","barnstaple, eng",51.078,-4.058,gb
"Marshfield, WI, USA","marshfield, wi 54449, usa",44.669,-90.172,"us,us"
"Eugene, OR 97403, USA","97403, oregon, united states",44.035,-123.047,us
"Darwen, UK","darwen, eng",53.695,-2.469,gb
"York, PA 17315, USA","17315, us",40.025,-76.849,us
"Earlsboro, OK 74840, USA","74840, oklahoma, united states",35.268,-96.804,us
"Post Falls, ID 83854, USA","83854, us",47.732,-116.975,us
"Katy, TX 77494, USA","katy, tx 77494 usa",29.742,-95.825,undefined
"Destin, FL 32550, USA","32550, florida, united states",30.379,-86.343,us
"Belchertown, MA 01007, USA","01007, us",42.287,-72.402,us
"Clewiston, FL 33440, USA","clewiston, florida, united states",26.754,-80.934,us
"Coquitlam, BC, Canada","coquitlam, bc, canada",49.284,-122.793,ca
"Palm Desert, CA 92260, USA","92260, california, united states",33.692,-116.408,us
"Charlotte, VT 05445, USA","05445, vermont, united states",44.3,-73.238,us
"Sharpsburg, MD 21782, USA","21782, maryland, united states",39.446,-77.757,us
"Dunnellon, FL, USA","dunnellon, florida, united states",29.049,-82.461,us
"Greencastle, PA 17225, USA","greencastle, pa 17225, usa",39.79,-77.728,us
"Houston, TX 77269, USA","77269, us",29.96,-95.559,us
"Oklahoma, USA",oklahoma united states,35.008,-97.093,undefined
"Low, La Vallée-de-la-Gatineau Regional County Municipality, QC, Canada","low, quebec, canada",45.811,-75.952,ca
"Herrin, IL 62948, USA","62948, illinois, united states",37.815,-89.027,us
"Holbrook, MA 02343, USA","02343, massachusetts, united states",42.145,-71.014,us
"Dayton, OR 97114, USA","97114, oregon, united states",45.178,-123.077,us
"Oregon Trail, Idaho 83716, USA","83716, oregon, united states",43.522,-116.083,undefined
"Vancouver, WA 98686, USA","98686, washington, united states",45.719,-122.621,us
"Markham, ON L3R, Canada","markham, on l3r, canada",43.855,-79.307,ca
"Lleida, Spain","lleida, catalonia, spain",41.618,0.62,us
United States,"se usa, us",37.09,-95.713,us
"Lenasia, South Africa","lenasia, za",-26.334,27.866,za
"Edenbridge TN8, UK","edenbridge, kent, uk",51.196,0.065,gb
"Coldwater, MS 38618, USA","38618, mississippi, united states",34.708,-89.907,us
"Laval, QC, Canada","laval, qc, canada",45.607,-73.712,ca
"Hamilton, ON L8H, Canada","l8h, ca",43.253,-79.79,ca
"Binghamton, NY, USA","binghamton, us",42.099,-75.918,us
"Montana, USA","montana, us",46.88,-110.363,us
"Zellwood, FL, USA","zellwood, florida, united states",28.731,-81.601,us
"Ripon, WI 54971, USA","54971, wisconsin, united states",43.9,-88.826,us
"Nova Scotia B0N, Canada","nova scotia b0n, canada",45.065,-63.175,ca
"Bozeman, MT, USA","bozeman, mt",45.677,-111.043,us
"Milwaukee, WI 53212, USA",53212,43.073,-87.909,"us,us"
"Cotter, AR 72626, USA","72626, arkansas, united states",36.317,-92.564,us
"Dover, OK 73734, USA","73734, oklahoma, united states",35.982,-97.894,us
"Pickering, ON L1V, Canada","pickering, on l1v, canada",43.827,-79.115,ca
"Indiana, PA, USA","indiana, pennsylvania, united states",40.621,-79.153,us
"Griffin, GA 30224, USA","30224, georgia, united states",33.204,-84.238,us
"Portslade, UK",portslade,50.843,-0.214,undefined
"Butte City, ID 83213, USA","83213, idaho, united states",43.517,-113.248,us
"Estell Manor, NJ 08319, USA","08319, new jersey, united states",39.361,-74.839,us
"Mooi River, 3300, South Africa","mooi river, 3300, south africa",-29.211,30.003,za
"Marshfield, WI 54449, USA",54449,44.588,-90.187,"us,us"
"Bussey, IA 50044, USA","50044, us",41.185,-92.878,us
"Bay Village, OH 44140, USA","44140, ohio, united states",41.488,-81.943,us
"Las Cruces, NM 88001, USA","88001, us",32.3,-106.753,us
"Garland, TX 75043, USA","garland, tx 75043, usa",32.849,-96.589,us
"Clintwood, VA 24228, USA","24228, virginia, united states",37.184,-82.432,us
"Dothan, AL 36301, USA","36301, us",31.135,-85.396,us
"Fort Lauderdale, FL 33324, USA","33324, us",26.108,-80.271,us
"Orem, UT 84057, USA","84057, us",40.315,-111.702,us
"North Huron, ON N0G, Canada","north huron, ontario, canada",43.83,-81.406,ca
"Corinth, KY 41010, USA","41010, kentucky, united states",38.509,-84.627,us
"Windsor SL4, UK","windsor sl4, ",51.482,-0.614,undefined
"Somerton TA11, UK","somerton, somerset, uk",51.055,-2.734,gb
"Sumter, SC, USA","sumter, sc, usa",33.92,-80.341,us
"Colwich, KS 67030, USA","67030, kansas, united states",37.8,-97.546,us
"North Olmsted, OH, USA","north olmsted, oh",41.416,-81.923,us
"San Jose, CA 95123, USA","95123, us",37.237,-121.828,us
"Melissa, TX 75454, USA","75454, texas, united states",33.277,-96.546,us
"Newberne, WV 26362, USA","26362, west virginia, united states",39.122,-81.053,us
"Cary, IL, USA","cary, illinois, united states",42.213,-88.248,us
"Jefferson, NY 12093, USA","jefferson, new york, united states",42.481,-74.61,us
"Adelaide, 5760, South Africa","adelaide, 5760, south africa",-32.696,26.307,za
"Chickamauga, GA 30707, USA","chickamauga, ga 30707, usa",34.871,-85.291,us
"Charlton, MA 01507, USA",1507,42.143,-71.976,"us,us"
"Brampton, ON L6X, Canada","brampton, on l6x, canada",43.664,-79.802,ca
"Hanover, PA 17331, USA","hanover, pa 17331, usa",39.801,-76.983,us
"Samarqand Region, Uzbekistan","samarqand region, uzbekistan",39.921,66.427,us
"Hopkinton, MA, USA","hopkinton, massachusetts, united states",42.229,-71.523,us
"Munford, AL 36268, USA","36268, alabama, united states",33.484,-85.951,us
"Magna Park, Lutterworth LE17 4JG, UK",megna park,52.455,-1.253,undefined
"Fulton, NY 13069, USA","13069, us",43.338,-76.387,us
"Hollandale, WI 53544, USA","53544, wisconsin, united states",42.874,-89.916,us
"Omaha, NE 68122, USA","68122, nebraska, united states",41.373,-96.036,us
"Esto, FL 32425, USA",32425,30.871,-85.726,"us,us"
"West Mifflin, PA 15123, USA","15123, us",40.339,-79.931,us
"Waxhaw, NC 28173, USA","waxhaw, us",34.925,-80.743,us
"Rehoboth, MA 02769, USA","02769, massachusetts, united states",41.833,-71.264,us
"Rosenberg, TX, USA","rosenberg tx, us",29.557,-95.809,us
"Halifax, PA, USA","halifax, pa 17032, usa",40.468,-76.932,us
"Sealevel, NC 28577, USA","28577, north carolina, united states",34.867,-76.381,us
"Sechelt, BC, Canada","sechelt, bc, canada",49.474,-123.755,ca
"Kroonstad, South Africa","kroonstad, za",-27.637,27.232,za
"New Orleans, LA 70122, USA",70122,30.009,-90.065,undefined
"March, UK","march, cambridgeshire, england, united kingdom",52.552,0.089,gb
"Maple Ridge, BC V2X, Canada","maple ridge, bc v2x, canada",49.223,-122.618,ca
"Los Feliz, Los Angeles, CA, USA","los feliz, california, united states",34.106,-118.285,us
"Guilford, CT 06437, USA","06437 connecticut, united states",41.34,-72.698,undefined
"Charlotte, NC, USA","charlotte state of north carolina, us",35.227,-80.843,us
"Ballymoney BT53, UK","ballymoney, nir",55.07,-6.517,gb
"Kapolei, HI, USA","kapolei, hi",21.335,-158.057,us
"Chester, MD 21619, USA",21619,38.952,-76.283,undefined
"St Albans, WV 25177, USA",25177,38.38,-81.855,"us,us"
"ROCKAWAY BEAC, NY 11693, USA",11693,40.617,-73.827,"us,us"
"Tampa, FL 33618, USA","33618, florida, united states",28.077,-82.502,us
"Las Cruces, NM, USA","las cruces, nm",32.32,-106.764,us
"Moseley, VA 23120, USA","23120, virginia, united states",37.411,-77.723,us
"Mountain View, CA, USA","mountain view, ca",37.386,-122.084,us
"Kennard, NE 68034, USA","68034, nebraska, united states",41.453,-96.216,us
"Chantilly, VA 20151, USA","20151, virginia, united states",38.902,-77.459,us
"Colsterworth, Grantham NG33, UK","colsterworth, eng",52.803,-0.621,gb
"Park Hills, MO, USA","park hills, missouri, united states",37.854,-90.518,us
"Plainwell, MI 49080, USA","49080, us",42.446,-85.582,us
"Lafayette Springs, MS 38655, USA","lafayette springs, ms 38655, usa",34.318,-89.262,"us,us"
"Dexter, MI 48130, USA","48130, michigan, united states",42.349,-83.89,us
"Bexhill, Bexhill-on-Sea, UK","bexhill, gb",50.85,0.466,gb
"California, USA","a0k, ca",36.778,-119.418,ca
"Alachua County, FL, USA","alachua county, florida, united states",29.658,-82.302,us
"Missoula, MT 59803, USA","59803, montana, united states",46.77,-114.003,us
"Denison, IA 51442, USA","denison, ia 51442, usa",42.025,-95.359,us
"Union Park, FL 32817, USA",32817,28.588,-81.241,undefined
"Alburtis, PA 18011, USA","18011, pennsylvania, united states",40.469,-75.662,us
"Bow, NH 03304, USA","bow center, nh",43.132,-71.549,us
"Little Rock, MS 39337, USA","39337, mississippi, united states",32.511,-88.999,us
"Polk City, FL 33868, USA","33868, florida, united states",28.288,-81.822,us
"Jerseyville, IL 62052, USA","jerseyville, il 62052, usa",39.12,-90.328,us
"Houghton, MI 49931, USA","houghton, michigan, united states",47.121,-88.569,us
"Denison, IA 51442, USA","51442, iowa, united states",41.993,-95.352,us
"Yamhill, OR 97148, USA","yamhill, oregon, united states",45.342,-123.188,us
"Dryden, NY 13053, USA","13053, us",42.471,-76.259,us
"Otley, UK","otley, eng",53.906,-1.692,gb
"The Woodlands, TX, USA","the woodlands, tx",30.166,-95.461,us
"Falmouth, ME 04105, USA","04105, maine, united states",43.744,-70.26,us
"Longview, WA, USA","longview, wa 98632, usa",46.138,-122.938,us
"Boyertown, PA 19512, USA","boyertown, pennsylvania, united states",40.334,-75.637,us
"Saint-Jean-sur-Richelieu, QC J2W, Canada","saint-jean-sur-richelieu, qc j2w, canada",45.353,-73.286,ca
"Rathdrum, ID 83858, USA","rathdrum, idaho, united states",47.812,-116.897,us
"Lafayette Springs, MS 38655, USA",38655,34.285,-89.436,"us,us"
"Dundee, UK","dundee, uk",56.462,-2.971,gb
"Scottsbluff, NE 69361, USA","scottsbluff, ne 69361, usa",41.867,-103.667,us
"Garland, TX 75040, USA","garland, tx 75040, usa",32.937,-96.632,us
"CHARLOTTEVLE, NY 12036, USA","12036, us",42.548,-74.658,us
"Lutterworth LE17, UK",lutterworth,52.456,-1.199,"gb,gb"
"Phenix City, AL 36869, USA","36869, alabama, united states",32.417,-85.044,us
"Magee, MS, USA","magee, mississippi, united states",31.874,-89.734,us
"Heathsville, VA 22473, USA","22473, virginia, united states",37.918,-76.473,us
"California, USA","m1k, ca",36.778,-119.418,ca
"Haleyville, AL 35565, USA","35565, us",34.263,-87.579,us
"Vryheid, South Africa","kzn vryheid, south africa",-27.765,30.792,undefined
"Drexel Hill, PA 19026, USA","19026, pennsylvania, united states",39.952,-75.3,undefined
"Secunderabad, Telangana 500094, India","500094, telangana, india",17.508,78.56,us
"Akron, PA 17501, USA","17501, us",40.157,-76.199,us
"Price, UT 84501, USA","84501, us",39.599,-110.811,us
"Clearview, ON, Canada","clearview, on, canada",44.418,-80.096,ca
Ireland,"ireland, gb",53.142,-7.692,gb
"Benson, VT 05743, USA","05743, us",43.698,-73.332,us
"Knik-Fairview, AK 99654, USA","knik-fairview, ak",61.516,-149.612,us
"Palm Desert, CA, USA","palm desert, ca",33.722,-116.374,us
"Beechdean Farmhouse Dairy Ice Cream,Old House Farm, North Dean, Buckinghamshire, High Wycombe HP14 4NL, UK",beechdean,51.683,-0.773,undefined
"Cape Coral, FL 33914, USA","33914, us",26.561,-82.008,us
"Savar Union, Bangladesh","savar union, c",23.848,90.258,gb
"South Derbyshire District, UK","south derbyshire, gb",52.843,-1.524,gb
"Nashville, AR 71852, USA",71852,34.048,-93.866,"us,us"
"Beaufort, NC 28516, USA","beaufort, nc",34.718,-76.664,us
"Windsor, VT 05089, USA","windsor, vetmont united states",43.48,-72.387,undefined
"Bowmansville, PA 17517, USA","bowmansville, pennsylvania, united states",40.197,-76.017,us
"Houston, TX 77058, USA",77058,29.564,-95.091,"us,us"
"Aurora, OR 97002, USA","97002, oregon, united states",45.257,-122.799,us
"STRATHMR MNR, KY 40205, USA","40205, us",38.221,-85.679,us
"Creemore, ON L0M 1G0, Canada","creemore, ontario, canada",44.327,-80.106,ca
"Augusta, MI 49012, USA","augusta, mi",42.336,-85.352,us
"Miami, FL 33186, USA","33186, florida, united states",25.665,-80.399,us
"Barrington, IL 60010, USA","barrington, il 60010, usa",42.154,-88.136,undefined
"Redlands, CA, USA","redlands, ca, usa",34.056,-117.206,us
"Thomasville, NC 27360, USA","27360, us",35.874,-80.076,us
"Bardwell, KY 42023, USA","bardwell, kentucky, united states",36.871,-89.01,us
"Bulakan, Bulacan, Philippines","bulacan, central luzon, philippines",14.794,120.88,us
"Mountain Brook, AL 35213, USA",35213,33.502,-86.747,"us,us"
"Boca Raton, FL 33428, USA","33428, florida, united states",26.349,-80.215,us
"Maricopa County, AZ, USA","maricopa county, arizona, united states",33.292,-112.429,us
"Burnt Corn, AL 36401, USA","36401, alabama, united states",31.434,-86.955,us
"Goldsboro, NC, USA","goldsboro nc, us",35.385,-77.993,us
"Nepean, ON K2G, Canada","nepean, on k2g, canada",45.322,-75.734,ca
"Lake of the Rivers No. 72, SK S0H, Canada","lake of the rivers no. 72, saskatchewan, canada",49.635,-105.806,ca
"Grafton, OH 44044, USA","44044, ohio, united states",41.268,-82.063,us
"Portola Hills, CA 92679, USA",92679,33.594,-117.573,"us,us"
"Indianapolis, IN 46218, USA","indianapolis, in 46218, usa",39.803,-86.104,us
"Pittsburg, CA, USA","pittsburg ca, us",38.028,-121.885,us
"Whitley Bay, UK","whitley bay, gb",55.046,-1.451,gb
"Marietta, PA 17547, USA","17547, pennsylvania, united states",40.072,-76.601,us
"Annapolis, MD 21409, USA","annapolis, md 21409, usa",39.013,-76.445,us
"Zerbe, Newtown, PA 17981, USA","zerbe, pa 17981, usa",40.65,-76.349,us
"Lancaster, OH 43130, USA","lancaster, ohio, united states",39.714,-82.599,us
"Glendale, CA 91208, USA",91208,34.198,-118.235,"us,us"
"Clinton, MO 64735, USA","64735, missouri, united states",38.382,-93.784,us
"Hagerstown, IN 47346, USA","hagerstown, indiana, united states",39.911,-85.162,us
"St Martinville, LA 70582, USA","st martinville, la 70582, usa",30.123,-91.829,us
"Villiersdorp, 6848, South Africa","villiersdorp, wc",-33.986,19.286,za
"Scituate, MA, USA","scituate, massachusetts, united states",42.196,-70.726,us
"Sible Hedingham, Halstead CO9, UK","sible hedingham, essex, uk",51.981,0.59,gb
"Nottingham, UK",nottingham ,52.955,-1.158,undefined
"Hurstpierpoint, Hassocks BN6, UK","hurstpierpoint, eng",50.934,-0.18,gb
"Marion, OH 43301, USA","43301, us",40.59,-83.13,us
"New Liberty, KY 40355, USA","40355, us",38.543,-84.84,us
"Culloden, GA 31016, USA","31016, georgia, united states",32.883,-84.091,us
"Sussex, NB, Canada","sussex, nb e4e, canada",45.724,-65.511,ca
"Jamaica, NY 11420, USA","11420 new york united states, us",40.676,-73.812,us
"Milledgeville, GA, USA","milledgeville, georgia, united states",33.08,-83.232,us
"Hannibal, NY 13074, USA","13074, new york, united states",43.322,-76.572,us
"Lincoln County, TN, USA","lincoln county, tennessee, united states",35.124,-86.621,us
"Liverpool, UK","liverpool, merseyside, ",53.408,-2.992,undefined
"Yuma, AZ, USA","yuma, ca",32.693,-114.628,us
"Canmore, AB, Canada","canmore, ab, canada",51.09,-115.344,ca
"Harrisburg, PA 17110, USA","harrisburg, pa 17110, usa",40.321,-76.884,us
"Elkridge, MD 21075, USA","21075, maryland, united states",39.211,-76.745,us
"Scottburgh, 4180, South Africa","scottburgh, kwazulu-natal, south africa",-30.286,30.755,za
"Billericay, UK","billericay, essex, uk",51.628,0.418,gb
"St Martinville, LA 70582, USA","st martinvlle, la 70582, usa",30.123,-91.829,us
"Anacortes, WA 98221, USA",98221,48.501,-122.64,undefined
"Lyneham, UK","lyneham, gb",51.514,-1.979,gb
"Medusa, NY 12120, USA","12120, new york, united states",42.441,-74.136,us
"Bonners Ferry, ID 83805, USA","83805, idaho, united states",48.799,-116.563,us
"Joliet, IL 60404, USA","60404, us",41.517,-88.217,us
"Lake George, NY 12845, USA","12845, new york, united states",43.44,-73.689,us
"Spokane, WA, USA","spokane, wa",47.659,-117.426,us
"Banstead, UK","banstead, surrey, england, united kingdom",51.322,-0.205,gb
"Larkfield-Wikiup, CA, USA","lakefield, ca",38.515,-122.758,ca
"Wythall, Birmingham, UK","wythall, worcestershire, uk",52.376,-1.886,gb
"Osage, OK 74054, USA","74054, oklahoma, united states",36.258,-96.333,us
"Ridgway, IL 62979, USA","ridgway, illinois, united states",37.799,-88.261,us
"Nampa, ID, USA",nampa id,43.579,-116.56,undefined
"Northport, NY 11768, USA","northport, ny",40.901,-73.343,us
"Ixopo, 3276, South Africa","ixopo, 3276, south africa",-30.153,30.069,za
"Montrose, CO, USA","montrose, co",38.478,-107.876,us
"Capenhurst, UK","capenhurst, gb",53.261,-2.952,gb
"Mountain Ash CF45, UK","mountain ash cf45, uk",51.682,-3.373,gb
"Dunn County, WI, USA","dunn county, wisconsin, united states",44.909,-91.91,us
"Saffron Walden, UK","saffron walden, essex, uk",52.023,0.239,gb
"Burbank, CA 91501, USA","91501, california, united states",34.204,-118.294,us
"London SW19 6NN, UK",sw196nn,51.444,-0.208,undefined
"Old Orchard Beach, ME, USA","old orchard beach me, us",43.518,-70.377,us
"Biggs, CA 95917, USA","95917, california, united states",39.438,-121.754,us
"Oklahoma City, OK 73128, USA","73128, oklahoma, united states",35.449,-97.66,us
"Mamelodi, Pretoria, 0122, South Africa","mamelodi, pretoria, 0122, south africa",-25.723,28.422,za
"Guelph, ON, Canada","guelph, on, canada",43.545,-80.248,ca
"Tetbury GL8, UK","tetbury, gb",51.639,-2.158,gb
"Austin, TX 78744, USA",78744,30.196,-97.731,"us,us"
"Arnett, OK 73832, USA","73832, oklahoma, united states",36.088,-99.679,us
"CORONA DL MAR, CA 92625, USA","newport beach, ca 92625 , usa",33.599,-117.872,undefined
"Alnwick NE66, UK","alnwick, eng",55.413,-1.706,gb
"Burkesville, KY 42717, USA","burkesville, kentucky, united states",36.79,-85.371,us
"Ajo, AZ 85321, USA","85321, arizona, united states",32.332,-112.525,us
"Bowling Green, FL 33834, USA","33834, florida, united states",27.642,-81.91,us
"Tucson, AZ 85735, USA","85735, us",31.97,-111.428,us
"Shinglehouse, PA 16748, USA","16748, pennsylvania, united states",41.955,-78.134,us
"Wilmer, TX 75172, USA","75172, texas, united states",32.603,-96.68,us
"Hallowell, ME 04347, USA","04347, maine, united states",44.293,-69.813,us
"Chapel-en-le-Frith, High Peak SK23, UK","chapel-en-le-frith, high peak sk23, uk",53.324,-1.913,gb
"Camden Town, London, UK","camden town, gb",51.539,-0.143,gb
"Caledon, ON L7C, Canada","caledon, on l7c, canada",43.752,-79.835,ca
"Orlando, FL, USA","orlando, us",28.538,-81.379,us
"Blackstone, MA 01504, USA","blackstone, ma 01504, usa",42.042,-71.537,us
"Ancaster, ON L9K, Canada","ancaster, on l9k, canada",43.226,-79.944,ca
"Morris, NY 13808, USA","13808, new york, united states",42.548,-75.271,us
"Godley, TX 76044, USA","godley, texas, united states",32.449,-97.527,us
"San Juan-Laventille Regional Corporation, Trinidad and Tobago","san juan-laventille regional corporation, trinidad and tobago",10.691,-61.455,us
"Drayton Valley, AB, Canada","drayton valley, alberta, canada",53.221,-114.977,ca
"Washington, DC 20020, USA","20020, district of columbia, united states",38.863,-76.97,us
"Cookstown BT80, UK",cookstown bt80,54.642,-6.744,undefined
"Colne, UK","colne, eng",53.856,-2.177,gb
"Bassetlaw District, UK","bassetlaw district, gb",53.319,-0.94,gb
"Zerbe, PA 17981, USA","17981, pennsylvania, united states",40.641,-76.375,us
"Fordingbridge SP6, UK","fordingbridge, eng",50.926,-1.793,gb
"Atlanta, GA 30315, USA","atlanta, ga 30315, usa",33.703,-84.386,us
"Moab, UT 84532, USA","moab, utah, united states",38.573,-109.55,us
"Wellington, CO 80549, USA","wellington, colorado, united states",40.704,-105.009,us
"Plympton-Wyoming, ON, Canada","plympton-wyoming, on, canada",42.98,-82.118,ca
"Murcia, Spain","murcia, spain",37.992,-1.131,gb
"Evansville, WY 82636, USA","82636, wyoming, united states",42.898,-106.205,us
"Tecumseh, KS 66542, USA","tecumseh, kansas, united states",39.044,-95.582,us
"Windsor, VT 05089, USA",windsor vt,43.48,-72.387,undefined
"Acampo, CA 95220, USA","acampo, california, united states",38.175,-121.279,us
"Spalding, UK","spalding, eng",52.79,-0.154,gb
"East Riverdale, MD, USA","east riverdale, md, usa",38.958,-76.911,us
"Vaughan, ON L6A, Canada","vaughan, on l6a, canada",43.869,-79.504,ca
"Crosshouse, Kilmarnock KA2, UK","crosshouse, gb",55.612,-4.553,gb
"Quebec G0N, Canada","g0n, quebec, canada",46.078,-71.199,ca
"Banchory AB31, UK","banchory ab31, uk",57.054,-2.491,gb
"Kailua-Kona, HI 96740, USA","96740, us",19.799,-155.904,us
"Trussville, AL, USA","trussville, alabama, united states",33.62,-86.609,us
"Dartmouth, NS B2V, Canada","dartmouth, ns b2v, canada",44.658,-63.481,ca
"Market Drayton TF9, UK","market drayton, shropshire, england, united kingdom",52.904,-2.483,gb
"Wilmslow SK9, UK","wilmslow, eng",53.328,-2.229,gb
"Thornton, IL 60476, USA","60476, illinois, united states",41.571,-87.604,us
"S OF BORDER, SC 29547, USA","29547, south carolina, united states",34.493,-79.324,us
"Erin, NY 14838, USA","14838, new york, united states",42.186,-76.67,us
"Collinsville, AL 35961, USA","35961, alabama, united states",34.284,-85.869,us
"Mt Pleasant, PA 15666, USA","mount pleasant, pennsylvania, united states",40.149,-79.541,us
"Amery, WI 54001, USA","amery, wisconsin, united states",45.307,-92.362,us
"Miami, FL, USA","miami florida, ca",25.762,-80.192,ca
"Statesville, NC 28625, USA","28625, us",35.851,-80.877,us
"Irving, TX 75014, USA","irving, tx 75014, usa",32.84,-96.97,us
"Elgin, SC, USA","elgin, sc",34.171,-80.794,us
"Crandall, GA 30711, USA","30711, georgia, united states",34.937,-84.763,us
"Covelo, CA 95428, USA","95428, california, united states",39.807,-123.214,us
"Alice, TX 78332, USA","alice, texas, united states",27.752,-98.07,us
"Belpre, OH 45714, USA","45714, ohio, united states",39.33,-81.625,us
"8200 Albufeira, Portugal","albufeira, gb",37.089,-8.248,gb
"Lexington, NE 68850, USA","68850, nebraska, united states",40.746,-99.768,us
"Columbia, MD, USA","columbia, md",39.204,-76.861,us
"Thorn, Houghton Regis, Dunstable LU5 6GY, UK","thorn, houghton regis, dunstable lu5 6gy, uk",51.911,-0.545,gb
"Jasper, TX 75951, USA","jasper, texas, united states",30.921,-93.997,us
"Clarence, NY, USA","clarence, new york, united states",42.982,-78.577,us
"Coconut Creek, FL, USA","coconut creek, fl, usa",26.252,-80.179,us
"Charlotte, NC 28207, USA","28207, north carolina, united states",35.193,-80.824,us
"Lumberton, MS 39455, USA","39455, mississippi, united states",30.94,-89.361,us
"Deronda, WI 54001, USA","54001, wisconsin, united states",45.331,-92.391,us
"Plympton-Wyoming, ON, Canada","plympton-wyoming, ontario, canada",42.98,-82.118,ca
"Wichita, KS 67209, USA","67209, kansas, united states",37.665,-97.433,us
"Panama, OK, USA","panama, oklahoma, united states",35.167,-94.672,us
"Grand Beach, MI 49117, USA","49117, michigan, united states",41.784,-86.732,us
"Swansea, UK",swansea bay nhs,51.621,-3.944,undefined
"Calimesa, CA, USA","calimesa ca, us",34.004,-117.062,us
"Lubbock, TX 79413, USA",79413,33.551,-101.883,undefined
"Chase, BC, Canada","chase, bc",50.819,-119.685,ca
"Piscataway, NJ 08854, USA","piscataway, new jersey, united states",40.555,-74.464,us
"Cortland, IL 60112, USA","60112, illinois, united states",41.93,-88.694,us
"Port O'Connor, TX 77982, USA","77982, texas, united states",28.443,-96.477,us
"Cloverdale, OH 45827, USA","45827, ohio, united states",40.999,-84.291,us
"Merepoint, ME 04011, USA","04011, us",43.914,-69.967,us
"Statesville, NC 28625, USA",28625,35.851,-80.877,undefined
"Anton, TX 79313, USA","79313, us",33.796,-102.14,us
"Holywood, UK","holywood, nir",54.634,-5.846,gb
"Wetaskiwin, AB, Canada","wetaskiwin, ab, canada",52.969,-113.366,ca
"Connell, WA 99326, USA","99326, washington, united states",46.675,-118.894,us
"Greenacres, FL, USA","greenacres, fl, usa",26.628,-80.135,us
"Owasco, NY 13021, USA","owasco, ny 13021, usa",42.855,-76.465,us
"Enid, OK 73701, USA","73701, us",36.419,-97.807,us
"Dayton, OH 45439, USA","45439, ohio, united states",39.704,-84.217,us
"Potchefstroom, South Africa","potchefstroom south africa, za",-26.715,27.097,za
"Mosinee, WI 54455, USA","mosinee, wi 54455, usa",44.793,-89.703,undefined
"Tiverton EX16, UK","tiverton, devon, england, united kingdom",50.902,-3.491,gb
"Port Gardner, Everett, WA, USA","port gardner, washington, united states",47.971,-122.211,us
"Wetaskiwin, AB, Canada","wetaskiwin, ca",52.969,-113.366,ca
"California, USA","e1b, ca",36.778,-119.418,ca
"Columbia, SC 29201, USA",29201,33.987,-81.037,"us,us"
"Potchefstroom, South Africa",potchefstroom south africa,-26.715,27.097,undefined
"Grouard, AB T0G 1C0, Canada","grouard, ab t0g, canada",55.523,-116.159,ca
"Langley, BC, Canada","langley township, bc",49.073,-122.573,ca
"Burton upon Trent, Burton-on-Trent, UK","burton upon trent, burton-on-trent, uk",52.814,-1.637,gb
"Sound Beach, NY, USA","sound beach, new york, united states",40.956,-72.968,us
"South St, S CHESTERFLD, VA 23834, USA","s chesterfld, va 23834, usa",37.299,-77.419,us
"Columbus, GA 31906, USA",31906,32.47,-84.951,"us,us"
"Kentville, NS, Canada","kentville, ns, canada",45.077,-64.494,ca
"Menomonee Falls, WI 53051, USA","menomonee falls, wisconsin, united states",43.179,-88.117,us
"Pittston, ME 04345, USA","04345, maine, united states",44.166,-69.719,us
"Williamsport, OH 43164, USA","43164, ohio, united states",39.592,-83.101,us
"Chatham, PA 19390, USA","19390, pennsylvania, united states",39.814,-75.842,us
"Jellico, TN 37762, USA","37762, tennessee, united states",36.578,-84.128,us
"Ramsey, NJ 07446, USA","ramsey, new jersey, united states",41.057,-74.141,us
"Sea Isle City, NJ 08243, USA","08243, new jersey, united states",39.183,-74.681,us
"Northfleet, UK","northfleet, uk",51.441,0.337,gb
"Summerdale, AL 36580, USA",36580,30.496,-87.707,"us,us"
"Santa Clara, UT, USA","santa clara, utah, united states",37.133,-113.654,us
"Chillicothe, OH 45601, USA",45601,39.315,-82.95,undefined
"Riverside-San Bernardino-Ontario, CA, CA, USA","inland empire, us",34.959,-116.419,us
"Louisville, IL 62858, USA","louisville, illinois, united states",38.772,-88.503,us
"Mishawaka, IN, USA","mishawaka, indiana, united states",41.662,-86.159,us
"Laikipia County, Kenya","laikipia county, gb",0.361,36.782,gb
"Chapel Hill, NC 27516, USA","27516, north carolina, united states",35.921,-79.132,us
"Harpenden AL5, UK","harpenden, eng",51.818,-0.359,gb
"Cleveland, OH, USA","cleveland, oh, usa",41.499,-81.694,us
"Toronto, SD 57268, USA","57268, south dakota, united states",44.561,-96.685,us
"Lenox, MA 01240, USA","01240, massachusetts, united states",42.372,-73.265,us
"Glen Rock, PA 17327, USA",17327,39.772,-76.757,undefined
"Soquel, CA 95073, USA","95073, california, united states",37.046,-121.936,us
"Mansfield, MA, USA","mansfield, massachusetts, united states",42.033,-71.219,us
"Monroe, LA, USA","monroe la 2701 , usa",32.509,-92.119,undefined
"Austin, TX, USA","austin, tx, usa",30.267,-97.743,us
"Lacombe, AB, Canada","lacombe, alberta, canada",52.468,-113.731,ca
"Palm Beach Gardens, FL, USA","palm beach gardens, fl",26.84,-80.102,us
"Pinnacle, NC 27043, USA","27043, north carolina, united states",36.333,-80.433,us
"Narrows, KY 42347, USA","42347, kentucky, united states",37.534,-86.882,us
"Wandsworth, London, UK","wandsworth, gb",51.458,-0.189,gb
"Dripping Springs, TX, USA","dripping springs, texas, united states",30.19,-98.087,us
"Dripping Springs, TX, USA","dripping springs, texas, united states",30.19,-98.087,us
"Dripping Springs, TX, USA","dripping springs, texas, united states",30.19,-98.087,us
"Alberta, Canada","alberta, ab",53.933,-116.576,ca
"Urbana, IL, USA","urbana, illinois, united states",40.111,-88.207,us
"Canvey Island, UK","canvey island, ?",51.517,0.578,gb
"Mitcheldean GL17, UK","mitcheldean gl17, uk",51.863,-2.489,gb
"Belmont, WI 53510, USA","53510, wisconsin, united states",42.727,-90.318,us
"Bryan, TX 77803, USA","bryan, tx 77803, usa",30.682,-96.376,us
"'s-Hertogenbosch, Netherlands","'s-hertogenbosch, gb",51.698,5.304,gb
"Gwinnett County, GA, USA","gwinnett county, georgia, united states",33.919,-84.017,us
"Wichita, KS 67218, USA","wichita, ks 67218, usa",37.664,-97.281,us
"Perry, OH 44081, USA","44081, ohio, united states",41.767,-81.153,us
"California, USA","t3l, ca",36.778,-119.418,ca
"Evansville, WI 53536, USA","evansville, wisconsin, united states",42.78,-89.299,us
"Swan Hills, AB T0G 2C0, Canada","swan hills, alberta, canada",54.717,-115.403,ca
"Hillsborough County, FL, USA","hillsborough county, fl, usa",27.99,-82.302,"us,us"
"Edmond, OK 73003, USA",73003,35.666,-97.498,"us,us"
"Millstone, NJ 08510, USA","08510, new jersey, united states",40.19,-74.417,us
"Buffalo, NY 14207, USA",14207,42.949,-78.901,"us,us"
"Tring HP23, UK","tring, hertfordshire, uk",51.796,-0.656,gb
"Racine, WI, USA","racine wi, us",42.726,-87.783,us
"California, USA","jop 1to, ca",36.778,-119.418,ca
"Hillsboro, TX 76645, USA","hillsboro, texas, united states",32.011,-97.13,us
"Hillsborough County, FL, USA",hillsborough,27.99,-82.302,"us,us"
"Lakeland, LA 70752, USA","70752, louisiana, united states",30.578,-91.434,us
"Wells, ME 04090, USA","04090, maine, united states",43.316,-70.645,us
"Moscow, ID, USA","moscow, idaho, united states",46.732,-117,us
"Mount Elgin, ON N0J 1N0, Canada","mount elgin, ontario, canada",42.959,-80.792,ca
"Thamesmead, London SE28, UK","thamesmead, gb",51.506,0.11,gb
"Paramount, CA, USA","paramount, california, united states",33.889,-118.16,us
"Yates County, NY, USA","yates county, new york, united states",42.643,-77.149,us
"Monument, CO 80132, USA","monument, co 80132, usa",39.099,-104.834,us
"Dade City, FL, USA","dade city, florida, united states",28.365,-82.196,us
"Meade County, KS, USA","meade county, kansas, united states",37.27,-100.35,us
"Katy, TX 77449, USA","katy, tx 77449, usa",29.826,-95.751,us
"Cullompton EX15, UK","cullompton, gb",50.855,-3.392,gb
"Sunset, LA 70584, USA","sunset, louisiana, united states",30.411,-92.068,us
"Cascade, VA 24069, USA",24069,36.577,-79.639,"us,us"
"Greece, NY 14626, USA","greece, ny 14626, usa",43.21,-77.693,us
"Valle de Santiago, Guanajuato, Mexico","valle de santiago, guanajuato, mexico",20.391,-101.194,us
"St Paul, MN 55104, USA","55104, us",44.952,-93.163,us
"Banff, AB, Canada","banff, gb",51.178,-115.571,gb
"Arlington Heights, IL 60004, USA","arlington heights, il 60004, usa",42.11,-87.982,us
"Guilford, CT 06437, USA","guilford, ct 06437, usa",41.34,-72.698,us
"Olive Branch, MS 38654, USA","olive branch, ms",34.962,-89.83,us
"Baton Rouge, LA 70815, USA","70815louisiana, united states",30.46,-91.063,undefined
"DeWitt, IA 52742, USA","52742, iowa, united states",41.819,-90.507,us
"Kill Devil Hills, NC 27948, USA","27948, north carolina, united states",36.017,-75.702,us
"Alberta T7Y, Canada","t7y, alberta, canada",53.427,-113.775,ca
"Clarens, South Africa","clarens, south africa",-28.514,28.41,za
"Driffield YO25, UK","driffield, gb",54.006,-0.443,gb
"Dacono, CO, USA","dacono, colorado, united states",40.085,-104.939,us
"Anchorage, AK 99505, USA","99505, alaska, united states",61.301,-149.711,us
"Camberley, UK","camberley, uk",51.335,-0.743,gb
"Redmond, OR 97756, USA","redmond, or",44.273,-121.174,us
"Dungannon, UK",dungannon,54.508,-6.767,"gb,gb"
"Regal, MN 56312, USA","56312, minnesota, united states",45.456,-94.948,us
"Kirkintilloch, Glasgow, UK","kirkintilloch, glasgow, uk",55.939,-4.156,gb
"Oakwood, CA 90004, USA","90004, us",34.075,-118.308,us
"GREENWEL SPGS, LA 70739, USA","70739, louisiana, united states",30.628,-90.953,us
"Oakdale, CA 95361, USA","oakdale, california, united states",37.767,-120.847,us
"Sapulpa, OK 74066, USA",74066,35.998,-96.131,"us,us"
"Asheville, NC, USA","asheville, nc",35.595,-82.551,us
"Tunapuna/Piarco Regional Corporation, Trinidad and Tobago","tunapuna/piarco regional corporation, trinidad and tobago",10.686,-61.304,us
"Coppull, Chorley, UK","coppull, gb",53.622,-2.663,gb
"Clatterbridge, Birkenhead, Wirral CH63 4JX, UK",clatterbridge ,53.327,-3.031,undefined
"Rabale, Navi Mumbai, Maharashtra 400701, India","400701, maharashtra, india",19.126,73.011,us
"Eros, LA 71238, USA","71238, louisiana, united states",32.357,-92.362,us
"Edmonton, AB T5K, Canada","edmonton, ab t5k, canada",53.536,-113.512,ca
"Huntington, NY, USA","huntington, new york, united states",40.868,-73.426,us
"Laurentides, QC, Canada","laurentides, quebec, canada",46.618,-75.018,undefined
"Stanchfield, MN 55080, USA","55080, minnesota, united states",45.66,-93.206,us
"Beckenham, UK","beckenham, greater london, england, united kingdom",51.408,-0.026,gb
"Dodge City, KS 67801, USA","dodge city, ks 67801, usa",37.753,-100.017,us
"Springfield, MA 01119, USA","01119, massachusetts, united states",42.128,-72.515,us
"New City, NY, USA","new city, new york, united states",41.148,-73.989,us
"Orting, WA 98360, USA","orting, washington, united states",47.098,-122.204,us
"Carlisle, PA 17013, USA",carlisle,40.201,-77.2,undefined
"Salix, IA 51052, USA","51052, iowa, united states",42.322,-96.259,us
"Tucson, AZ 85701, USA","85701, arizona, united states",32.215,-110.972,us
"Mattituck, NY, USA","mattituck, new york, united states",40.991,-72.534,us
"Albany, GA, USA","albany, ga",31.579,-84.156,us
"Kansas City, MO 64126, USA","64126, missouri, united states",39.094,-94.506,us
"Mississauga, ON L5W, Canada","mississauga, on l5w, canada",43.637,-79.712,ca
"Keswick CA12, UK","keswick, cumbria, uk",54.601,-3.135,gb
"Deer Park, WA 99006, USA","deer park, wa ",47.954,-117.477,undefined
"Prairie Rose No. 309, SK, Canada","prairie rose no. 309, saskatchewan, canada",51.725,-104.79,ca
"Bellport, NY 11713, USA","11713, new york, united states",40.784,-72.94,us
"Tillman, SC 29943, USA","29943, south carolina, united states",32.462,-81.131,us
"Midrand, South Africa","midrand, gb",-25.999,28.126,gb
"Dearing, KS, USA","dearing, ks",37.058,-95.71,gb
"Aylesbury, UK","aylesbury, uk",51.816,-0.808,gb
"Silver City, NM 88061, USA","silver city, nm 88061, usa",32.77,-108.28,us
"New Prague, MN 56071, USA","new prague, minnesota, united states",44.543,-93.576,us
"Farmingdale, NY 11735, USA","farmingdale, new york, united states",40.733,-73.445,us
"Fredericksburg, VA 22408, USA","22408, virginia, united states",38.217,-77.436,us
"Franksville, Caledonia, WI, USA","franksville, wisconsin, united states",42.76,-87.913,us
"Burnaby, BC V3J, Canada","burnaby, bc v3j, canada",49.258,-122.863,ca
"Auburntown, TN 37016, USA","37016, us",35.95,-86.104,us
"Flower Mound, TX, USA",flower mound,33.015,-97.097,"us,us"
"Denver, CO 80014, USA","denver, co 80014, usa",39.663,-104.828,us
"Robinson, TX, USA","robinson, texas, united states",31.468,-97.115,us
"Winnsboro, TX 75494, USA","75494, us",32.9,-95.289,us
"South Bend, IN, USA","south bend, in",41.676,-86.252,us
"Sturgeon Bay, WI 54235, USA","54235, wisconsin, united states",44.857,-87.341,us
"Gainesville, GA 30504, USA","30504, georgia, united states",34.278,-83.879,us
"Lindstrom, MN 55045, USA","55045, minnesota, united states",45.368,-92.827,us
"East Horsley, UK","east horsley, eng",51.262,-0.433,gb
"Ashford, UK",ashford middlesex ,51.427,-0.455,undefined
"Sooke, BC V9Z, Canada","v9z, ca",48.415,-123.768,ca
"Monroeville, PA 15146, USA","monroeville, pa 15146, usa",40.432,-79.751,us
"Hinsdale, IL 60523, USA","60523, illinois, united states",41.832,-87.943,us
"Orem, UT, USA","orem, ut",40.297,-111.695,us
"Morpeth NE61, UK","morpeth ne61, uk",55.169,-1.687,gb
"Lundys Lane, PA 16401, USA","16401, pennsylvania, united states",41.896,-80.433,us
"Brownsville-Bawcomville, LA 71292, USA","brownsville-bawcomville, la",32.479,-92.17,us
"Dodge City, KS 67801, USA","dodge city, kansas, united states",37.753,-100.017,us
"St Johns, FL 32259, USA","saint johns, florida, united states",30.082,-81.547,us
"Mandeville, QC J0K, Canada","mandeville, qc",46.359,-73.353,ca
"Dyserth, Rhyl, UK",dyserth,53.3,-3.417,undefined
"Elmont, NY, USA","elmont, ny",40.701,-73.713,us
"St Austell, Saint Austell PL25, UK","st austell, saint austell pl25, uk",50.34,-4.783,gb
"Castle Donington, Derby DE74, UK","castle donington, derby de74, uk",52.845,-1.337,gb
"Jacksonville, NC 28546, USA","jacksonville, nc 28546, usa",34.843,-77.401,us
"Sussex, NB, Canada","sussex, new brunswick, canada",45.724,-65.511,ca
"Gastonia, NC 28054, USA","28054, us",35.253,-81.153,us
"Lodi, CA, USA",lodi,38.134,-121.272,undefined
"Daventry NN11, UK","daventry, northamptonshire, england, united kingdom",52.257,-1.165,gb
"Okehampton Hamlets, Okehampton EX20, UK","okehampton hamlets, okehampton ex20, uk",50.724,-4.029,gb
"Verhalen, TX 79772, USA",79772,31.351,-103.636,"us,us"
"Thibodaux, LA 70301, USA","70301 louisiana, united states",29.81,-90.772,undefined
"Brixham, UK","brixham, eng",50.395,-3.514,gb
"Honolulu, HI 96815, USA","honolulu, hi 96815, usa",21.27,-157.818,us
"Ives Estates, FL 33179, USA","ives estates, fl",25.962,-80.177,us
"Bloomfield Hills, MI 48301, USA","48301, michigan, united states",42.542,-83.304,us
"Randolph, VA 23962, USA","23962, virginia, united states",36.959,-78.691,us
"Mamelodi, Pretoria, 0122, South Africa","pretoria mamelodi, za",-25.723,28.422,za
"Elkins, AR 72727, USA","72727, arkansas, united states",35.918,-93.886,us
"Newport Beach, CA 92660, USA","newport beach, ca 92660 , usa",33.63,-117.872,undefined
"L'Assomption, QC, Canada","l'assomption, quebec, canada",45.852,-73.412,ca
"Montgomery, TX, USA","montgomery, texas, united states",30.388,-95.696,us
"Baton Rouge, LA 70818, USA","70818, us",30.535,-91.068,us
"Warner, OK 74469, USA",74469,35.482,-95.321,"us,us"
"Kent, WA 98031, USA","kent, wa 98031, usa",47.411,-122.197,us
"Marion County, WV, USA","marion county, wv, usa",39.529,-80.232,us
"Mahanoy City, PA 17948, USA",17948,40.832,-76.144,undefined
"Glasgow, MO 65254, USA","65254, missouri, united states",39.225,-92.798,us
"El Paso, TX, USA","el paso, tx, usa",31.762,-106.485,us
"Fort Plain, NY 13339, USA",13339,42.926,-74.663,undefined
"Nunavut, Canada","nunavut, ca",70.3,-83.108,ca
"Waterloo, ON, Canada","waterloo, on, canada",43.464,-80.52,undefined
"Regional Municipality of Durham, ON, Canada","durham region, ca",43.937,-78.929,ca
"Clitheroe BB7, UK","clitheroe, lancashire, england, united kingdom",53.871,-2.393,gb
"Winnipeg, MB R2C, Canada","winnipeg, mb r2c, canada",49.901,-96.984,ca
"Lake Orion, Orion Twp, MI 48362, USA","lake orion, mi",42.784,-83.24,us
"Walnut Creek, CA 94596, USA","94596, california, united states",37.882,-122.027,us
"Long Island City, Queens, NY, USA",long island city ny,40.745,-73.949,undefined
"Erath, LA 70533, USA","70533, louisiana, united states",29.889,-92.047,us
"Scottsdale, AZ 85266, USA","85266, arizona, united states",33.761,-111.916,us
"Oak Grove, AL 35151, USA","35151, alabama, united states",33.072,-86.378,us
"Godmanchester, QC J0S, Canada","godmanchester, quebec, canada",45.121,-74.171,ca
"Baltimore, MD 21231, USA","21231, maryland, united states",39.288,-76.592,us
"Westminster, MD 21157, USA","21157, us",39.555,-76.987,us
"St Austell, Saint Austell PL25, UK","st austell, cornwall, uk",50.34,-4.783,gb
"Colchester, UK",colchester,51.896,0.892,undefined
"Fontana, CA 92336, USA","fontana, ca 92336, usa",34.146,-117.467,us
"Fort Belvoir, VA, USA","fort belvoir, virginia, united states",38.719,-77.154,us
"West Malling ME19, UK","west malling me19, uk",51.294,0.409,gb
"Binfield, UK","binfield, gb",51.431,-0.788,gb
"Deer Park, WA 99006, USA","deer park, washington, united states",47.954,-117.477,us
"Wanship, UT 84017, USA","84017, utah, united states",40.919,-111.141,us
"Mercier, QC, Canada","mercier, qc",45.311,-73.743,ca
"Rockland, Clarence-Rockland, ON, Canada","rockland, on k4k, canada",45.548,-75.292,ca
"6240 Guardian Gateway, Aberdeen Proving Ground, MD 21005, USA","caci corporation aberdeen proving ground, md",39.486,-76.159,undefined
"Mt Pleasant, NC 28124, USA","28124, north carolina, united states",35.423,-80.388,us
"Hammond, WI 54015, USA","54015, wisconsin, united states",44.964,-92.451,us
"Acme, PA 15610, USA",15610,40.141,-79.437,"us,us"
"Covington, KY 41018, USA","41018, kentucky, united states",39.014,-84.601,us
"Flagstaff, AZ 86004, USA","flagstaff, az 86004, usa",35.432,-111.38,"us,us"
"Churchville, Brampton, ON L6Y, Canada","churchville, ca",43.647,-79.754,ca
"Urmston, UK","urmston, gb",53.449,-2.375,gb
"Milbridge, ME 04658, USA","04658, maine, united states",44.532,-67.843,us
"Matane, QC, Canada","matane, ca",48.845,-67.531,ca
"Chesapeake, WV 25315, USA","25315, west virginia, united states",38.229,-81.565,us
"Fayetteville, AR, USA","fayetteville, ar",36.066,-94.158,undefined
"Addieville, IL 62214, USA","62214, illinois, united states",38.369,-89.635,us
"Puttalam, Sri Lanka","puttalam, north western province, sri lanka",8.041,79.839,us
"Elmira, ON N3B, Canada","elmira, ontario, canada",43.6,-80.563,undefined
"Galashiels TD1, UK","galashiels, sct",55.624,-2.814,gb
"Spring Hill, FL 34606, USA",34606,28.466,-82.6,undefined
"Danville, IN 46122, USA","danville, in",39.761,-86.526,us
"Summerland, BC V0H, Canada","summerland, bc",49.603,-119.683,ca
"Granite City, IL, USA","granite city, il",38.701,-90.149,us
"Flagstaff, AZ 86004, USA",86004,35.432,-111.38,"us,us"
"Toms River, NJ, USA","toms river, nj, usa",39.954,-74.198,us
"Rosebud, TX 76570, USA","76570, texas, united states",31.101,-96.899,us
"Siren, WI 54872, USA","54872, wisconsin, united states",45.746,-92.385,us
"Sound Beach, NY 11789, USA","11789, new york, united states",40.967,-72.976,us
"Amherst, NH 03031, USA","amherst, new hampshire, united states",42.861,-71.625,us
"Jackson, MI 49201, USA","jackson, mi 49201, usa",42.315,-84.375,us
"London Borough of Hounslow, UK",hounslow,51.483,-0.388,undefined
"Roxborough Park, CO, USA","roxborough park, colorado, united states",39.459,-105.079,us
"Vandalia, OH 45377, USA","45377, ohio, united states",39.889,-84.217,us
"Tokeland, WA 98590, USA","98590, washington, united states",46.706,-123.994,us
"Loyal, WI 54446, USA","54446, wisconsin, united states",44.756,-90.469,us
"Altha, FL 32421, USA","32421, florida, united states",30.506,-85.127,us
"Southeast Washington, Washington, DC, USA","southeast washington, washington, dc, usa",38.869,-76.976,us
"Success, MO 65570, USA","65570, missouri, united states",37.46,-92.096,us
"Stone Mountain, GA 30083, USA","30083, us",33.799,-84.191,us
"Brockton, MA, USA","brockton, massachusetts, united states",42.083,-71.018,us
"Perth, UK","perth, scotland, united kingdom",56.395,-3.431,us
"Rowlett, TX, USA","rowlett, tx",32.903,-96.564,us
"Heathfield TN21, UK","heathfield tn21, uk",50.967,0.256,gb
"Hardin County, OH, USA","hardin county, ohio, united states",40.705,-83.677,us
"Waxahachie, TX, USA",waxahachie,32.387,-96.848,"us,us"
"Parker, AZ 85344, USA","85344, arizona, united states",34.186,-114.096,us
"Kearney, MO 64060, USA","64060, missouri, united states",39.373,-94.387,us
"Huffman, TX 77336, USA","77336, texas, united states",30.072,-95.091,us
"Tupelo, MS 38801, USA",tupelo ms 38801,34.214,-88.769,undefined
"Mobile, AL 36606, USA",36606,30.681,-88.105,"us,us"
"Golden, NM 87047, USA","87047, new mexico, united states",35.21,-106.323,us
"Hobe Sound, FL 33455, USA","33455, florida, united states",27.087,-80.165,us
"Lake Worth, FL 33462, USA","lake worth, fl 33462, usa",26.584,-80.059,us
"Kirkintilloch, Glasgow, UK","kirkintilloch, sct",55.939,-4.156,gb
"Gaya, Bihar, India","gaya, bihar, india",24.791,85,us
"Pontypridd, UK","pontypridd, rhondda cynon taff, uk",51.601,-3.342,gb
"Abrams, WI 54101, USA","54101, wisconsin, united states",44.778,-88.071,us
"Medina, NY 14103, USA","medina, new york, united states",43.22,-78.387,us
"Ottawa, ON K1S, Canada","ottawa, on k1s, canada",45.399,-75.685,ca
"Mississauga, ON L5N, Canada","l5n, ca",43.588,-79.751,ca
"Newburgh, ME 04444, USA","04444, maine, united states",44.722,-68.903,us
"Homer City, PA 15748, USA","15748, pennsylvania, united states",40.533,-79.098,us
"Toms River, NJ, USA","toms river, nj",39.954,-74.198,us
"Sagle, ID 83860, USA","83860, idaho, united states",48.186,-116.435,us
"Box Elder, MT 59521, USA","59521, montana, united states",48.355,-110.025,us
"Stornoway, UK","stornoway, na h-eileanan an iar, scotland, united kingdom",58.209,-6.385,gb
"Arroyo Grande, CA 93420, USA","93420, us",35.178,-120.482,us
"Las Vegas, NV 89119, USA","las vegas, nv 89119, usa",36.077,-115.153,us
"Horley, UK","horley, eng",51.174,-0.172,gb
"Beverly, MA, USA",beverly,42.558,-70.88,"us,us"
"London Borough of Havering, UK","london havering, gb",51.578,0.212,gb
"Beccles NR34, UK",beccles ,52.459,1.566,undefined
"Auburn, MI 48611, USA","48611, michigan, united states",43.604,-84.09,us
Abu Dhabi - United Arab Emirates,"abu dhabi, gb",24.454,54.377,gb
"Gold River, BC, Canada","gold river, british columbia, canada",49.778,-126.05,ca
"San Leandro, CA 94579, USA","94579, california, united states",37.685,-122.158,us
"Princeton, ID 83857, USA","83857, idaho, united states",46.887,-116.779,us
"Lawrenceville, GA 30045, USA","30045, us",33.926,-83.921,us
"Wolverhampton, UK",wolverhampton ,52.587,-2.129,undefined
"Salt Lake City, UT 84107, USA","84107, utah, united states",40.662,-111.887,us
"Conroe, TX, USA",conroe,30.312,-95.456,"us,us"
"Cainsville, MO 64632, USA","64632, missouri, united states",40.472,-93.764,us
"Leicester, MA 01524, USA","01524, massachusetts, united states",42.257,-71.916,us
"Dursley GL11, UK","dursley, gloucestershire, england, united kingdom",51.679,-2.351,gb
"Mitchell, Chouteau Township, IL 62040, USA","mitchell, il 62040, usa",38.764,-90.081,us
"Houston, TX 77021, USA","houston, tx 77021, usa",29.698,-95.357,"us,us"
"Aberdeen Proving Ground, MD 21005, USA","aberdeen proving ground, md",39.463,-76.12,us
"Charing, UK","charing, gb",51.211,0.795,gb
"Wheaton, IL, USA","wheaton, il",41.866,-88.107,us
"Bon Wier, TX 75928, USA","bon wier, texas, united states",30.74,-93.643,us
"Witchford, Ely CB6, UK","witchford, gb",52.386,0.211,gb
"Brampton, ON L6X 4V7, Canada","l6x4v7, ca",43.682,-79.811,ca
"Knox City, TX 79529, USA","knox city, texas, united states",33.418,-99.819,us
"Wales, UK","wales, uk",52.131,-3.784,gb
"San Antonio, TX 78211, USA",78211,29.346,-98.567,"us,us"
"Glen Allen, VA, USA","glen allen, va, usa",37.666,-77.506,us
"Barneveld, NY 13304, USA","13304, new york, united states",43.249,-75.166,us
"Waldo, OH 43356, USA","43356, ohio, united states",40.456,-83.047,us
"Mastic Beach, NY, USA","mastic beach, new york, united states",40.767,-72.852,us
"Chatham-Kent, ON, Canada","chatham-kent, on, canada",42.405,-82.191,ca
"Penticton, BC, Canada","penticton, bc, canada",49.499,-119.594,ca
"Park Hill, OK 74451, USA","74451, oklahoma, united states",35.703,-94.997,us
"Portsmouth, VA 23701, USA","portsmouth, va 23701, usa",36.813,-76.37,"us,us"
"La Pine, OR 97739, USA","la pine, oregon, united states",43.67,-121.504,us
"Blackburn, South Africa","blackburn, south africa",-29.666,31.058,za
"Toronto, ON M3H 0E2, Canada","m3h0e2, ca",43.734,-79.448,ca
"Waverly, GA 31565, USA","31565, georgia, united states",31.059,-81.625,us
"Kunkletown, PA 18058, USA","18058, pennsylvania, united states",40.855,-75.458,us
"Spokane, WA 99208, USA","spokane, wa 99208, usa",47.787,-117.464,"us,us"
"Adrian, MN 56110, USA","56110, minnesota, united states",43.598,-95.941,us
"Chuckey, TN 37641, USA","37641, tennessee, united states",36.101,-82.627,us
"Tucson, AZ 85775, USA","85775, us",32.19,-111.024,us
"Barnwell, SC 29812, USA","barnwell, sc 29812, usa",33.245,-81.359,us
United States,usa,37.09,-95.713,undefined
"Jackson, MS 39232, USA","39232, us",32.322,-90.103,us
"Sevenoaks, UK","sevenoaks, uk",51.272,0.191,gb
"Dequincy, LA 70633, USA","70633, us",30.415,-93.399,us
"Center Line, MI 48015, USA","48015, michigan, united states",42.481,-83.031,us
"Greenwood, CA 95635, USA","greenwood, ca 95635, usa",38.899,-120.915,ca
"Spokane, WA 99208, USA",99208,47.787,-117.464,"us,us"
"Dallas, TX 75252, USA","dallas, tx 75252, usa",33.001,-96.798,us
"Lugoff, SC 29078, USA","lugoff, sc 29078, usa",34.227,-80.689,us
"Baton Rouge, LA 70820, USA","70820, louisiana, united states",30.373,-91.183,us
"Lawson, MO 64062, USA","lawson, missouri, united states",39.438,-94.204,us
"Nappanee, IN 46550, USA","46550, indiana, united states",41.432,-85.992,us
"Champaign, IL 61821, USA","61821, us",40.102,-88.275,us
"Lugoff, SC 29078, USA","29078, south carolina, united states",34.177,-80.699,us
"Dorchester, IL 62033, USA","dorchester, il 62033, usa",39.086,-89.888,us
"San Pedro, CA 90731, USA","san pedro, ca 90731, usa",33.724,-118.264,us
"Nanaimo, BC, Canada","nanaimo, bc",49.166,-123.94,ca
"Harker Heights, TX, USA","harker heights, texas, united states",31.084,-97.66,us
"Bel Aire, KS, USA","bel aire, kansas, united states",37.766,-97.263,us
"Sioux City, IA 51111, USA","51111, iowa, united states",42.418,-96.381,us
"Hoffman Estates, IL 60169, USA",60169,42.058,-88.114,"us,us"
"Philadelphia, PA, USA","philadelphia international airport, pennsylvania, united states",39.953,-75.165,us
"Indianola, MS 38751, USA","indianola, ms",33.451,-90.655,us
"Haskell, Wanaque, NJ 07420, USA","haskell, new jersey, united states",41.03,-74.296,us
"Ash, NC 28420, USA","28420, us",34.074,-78.452,us
"Rivercourse, AB T0B 3X0, Canada","rivercourse, ab t0b, canada",53.017,-110.054,ca
"Esto, FL 32425, USA","32425, us",30.871,-85.726,us
"Limpopo, South Africa",limpopo,-23.401,29.418,undefined
"Muzaffarpur, Bihar, India",muzaffarpur,26.12,85.391,"gb,gb"
"St Johnsbury, VT, USA","st. johnsbury, vermont, united states",44.419,-72.015,us
"Prineville, OR 97754, USA","97754, us",44.011,-120.665,us
"Stamford PE9, UK","stamford, lincolnshire, england, united kingdom",52.651,-0.48,gb
"Stuarts Draft, VA 24477, USA","24477, virginia, united states",38.035,-79.042,us
"Bordeaux, WY 82201, USA","82201, us",42.091,-105.126,us
"Lasalle, Montreal, QC, Canada","lasalle, montreal, qc, canada",45.431,-73.635,ca
"Florence, KY, USA","florence, kentucky, united states",38.999,-84.627,us
"Westland, MI 48185, USA",48185,42.336,-83.384,"us,us"
"Keyport, NJ 07735, USA","keyport, new jersey, united states",40.433,-74.2,us
"Minneapolis, MN 55408, USA","55408, minnesota, united states",44.948,-93.294,us
"Greenwood, CA 95635, USA","greenwood, ca",38.899,-120.915,ca
"Pine Ridge, FL, USA","pine ridge, florida, united states",28.938,-82.473,us
"Prince Edward Island C0B, Canada","prince edward island c0b, canada",46.529,-63.992,ca
"Holton, Oxford OX33, UK","holton, oxfordshire, uk",51.756,-1.131,gb
"Intercourse, PA, USA","intercourse, pennsylvania, united states",40.038,-76.108,us
"Erie, PA 16506, USA","erie, pa 16506, usa",42.059,-80.154,us
"California, USA","t3g, ca",36.778,-119.418,ca
"Union Beach, NJ 07735, USA","union beach, nj 07735, usa",40.446,-74.178,us
"Helena, MT, USA","helena, montana, united states",46.589,-112.039,us
"Maumee, OH 43537, USA","maumee, oh 43537, usa",41.568,-83.699,"us,us"
"Marmora, NJ 08223, USA","08223, new jersey, united states",39.275,-74.652,us
"McKinney, TX 75071, USA","75071, us",33.251,-96.632,us
"Sussex, NJ 07461, USA","07461, new jersey, united states",41.24,-74.64,us
"Perkins, OK 74059, USA","perkins, oklahoma, united states",35.974,-97.034,us
"Las Vegas, NV 89121, USA","las vegas, nv 89121, usa",36.117,-115.088,us
"Romney Marsh Visitor Centre, Dymchurch Rd, New Romney TN28 8AY, UK","romney marsh, kent, england, united kingdom",50.997,0.959,gb
"Godley, TX 76044, USA","76044, texas, united states",32.446,-97.568,us
"South Bend, IN 46615, USA",46615,41.683,-86.211,undefined
"Harden City, OK 74871, USA","74871, oklahoma, united states",34.667,-96.514,us
"Maumee, OH 43537, USA",43537,41.568,-83.699,"us,us"
"Loon Lake, WA 99148, USA","99148, washington, united states",48.142,-117.539,us
"Millville, MA 01529, USA","01529, massachusetts, united states",42.034,-71.578,us
"Waynesville, GA 31566, USA","31566, georgia, united states",31.207,-81.801,us
"S PADRE ISLE, TX 78597, USA","78597, texas, united states",26.26,-97.244,us
"Cottonwood, CA 96022, USA","96022, california, united states",40.335,-122.48,us
"Wallington, UK","wallington, uk",51.364,-0.152,gb
"Holdrege, NE 68949, USA","68949, nebraska, united states",40.435,-99.39,us
"Mullins, SC 29574, USA","29574, south carolina, united states",34.192,-79.268,us
"Indian Orchard, Springfield, MA, USA","indian orchard, ma",42.155,-72.503,us
"Shard End, Birmingham B34, UK",sherd end ,52.495,-1.782,undefined
"Murray, KY 42071, USA","murray, kentucky",36.61,-88.315,undefined
"East Liverpool, OH 43920, USA","east liverpool, oh",40.619,-80.577,us
"West Yellowstone, MT 59758, USA","west yellowstone, mt",44.662,-111.104,us
"Dundonald, Belfast BT16, UK","dundonald, belfast bt16, uk",54.593,-5.795,gb
"Laval, QC H7X, Canada","laval, qc h7x, canada",45.536,-73.807,ca
"Kweneng District, Botswana","kweneng district, botswana",-23.837,25.284,ca
"Hague, VA 22469, USA","22469, virginia, united states",38.049,-76.676,us
"Placentia, CA 92870, USA","placentia, california, united states",33.871,-117.863,us
"Waynesville, NC 28785, USA","28785, north carolina, united states",35.675,-83.122,us
"Scarborough, ON M1B, Canada","scarborough, on m1b, canada",43.807,-79.194,ca
"Ochlocknee, GA 31773, USA","31773, georgia, united states",30.965,-84.038,us
"Wilburton, OK 74578, USA","wilburton, oklahoma, united states",34.919,-95.309,us
"Wilmont, MN 56185, USA","56185, minnesota, united states",43.776,-95.835,us
"McAllen, TX 78501, USA","mcallen, tx 78501, usa",26.219,-98.232,us
"Lacey, WA, USA","lacey, wa",47.036,-122.823,us
"Burlington, VT, USA","burlington, vt",44.476,-73.212,us
"Lloydminster, AB, Canada","lloydminster, ab",53.278,-110.006,ca
"Los Molinos, CA 96055, USA","96055, california, united states",40.078,-122.061,us
"Forest Row, UK","forest row, gb",51.097,0.033,gb
"North Baddesley, Southampton SO52, UK","north baddesley, hampshire, uk",50.977,-1.446,gb
"Harrison, AR 72601, USA","harrison, ar",36.23,-93.108,us
"Runcorn, UK","runcorn, uk",53.342,-2.73,gb
"Gorman, CA 93243, USA","93243, california, united states",34.794,-118.836,us
"North Babylon, NY 11703, USA",11703,40.734,-73.33,"us,us"
"Barrhead, AB, Canada","barrhead, sct",54.123,-114.402,gb
"San Diego, CA 92115, USA","92115, california, united states",32.761,-117.074,us
"Buffalo, SC 29321, USA","29321, south carolina, united states",34.735,-81.713,us
"658 Genoa Way Suite C, Castle Rock, CO 80109, USA","658 genoa way suite c, castle rock, co 80109, usa",39.41,-104.87,gb
"Essex, ON, Canada","essex, on",42.173,-82.819,ca
"Passaic County, NJ, USA","passaic county, us",41.123,-74.359,us
"Georgetown, CA 95634, USA","georgetown, ca",38.907,-120.839,ca
"Jerseyville, IL 62052, USA","jerseyville, illinois, united states",39.12,-90.328,us
"McMinnville, TN 37110, USA","mcminnville, tn",35.687,-85.78,us
"Parsonsburg, MD 21849, USA","21849, maryland, united states",38.347,-75.458,us
"Dilworth, MN 56529, USA","56529, minnesota, united states",46.877,-96.696,us
"Harbor Springs, MI 49740, USA","49740, michigan, united states",45.511,-85.021,us
"Wasperton, Warwick CV35, UK","wasperton, warwickshire, uk",52.228,-1.611,gb
"Mbombela, South Africa",mbombela,-25.475,30.969,undefined
"Chapel Hill, NC 27514, USA","27514, north carolina, united states",35.972,-79.048,us
"Highland Park, IL 60035, USA",60035,42.186,-87.806,"us,us"
"Ugu District Municipality, South Africa","ugu, za",-30.622,30.251,za
"Appleton, WI 54915, USA","54915, wisconsin, united states",44.246,-88.353,us
"Irlam, Manchester M44, UK","m44, england, united kingdom",53.442,-2.432,us
"SJAFB, NC 27531, USA","27531, north carolina, united states",35.351,-77.968,us
"Bolton BL6, UK","bl6, england, united kingdom",53.591,-2.525,us
"Sparta, TN 38583, USA","sparta, tennessee",35.926,-85.464,us
"Genesee, PA 16923, USA","16923, pennsylvania, united states",41.965,-77.86,us
"Stillwater, OK 74075, USA","74075, oklahoma, united states",36.163,-97.071,us
"Warren, OR 97053, USA","97053, oregon, united states",45.835,-122.871,us
"St. Louis, MO 63139, USA","63139, us",38.616,-90.295,us
"Murraysville, WV 26164, USA","26164, west virginia, united states",39.005,-81.713,us
"Hilo, HI 96720, USA","96720, us",19.703,-155.238,us
"Pomona, CA, USA","pomona, ca",34.055,-117.75,us
"Jacksonville, FL 32254, USA","jacksonville, fl 32254, usa",30.348,-81.746,us
"Trappe, MD 21673, USA","21673, maryland, united states",38.628,-76.062,us
"Duluth, MN 55802, USA","55802, minnesota, united states",46.753,-92.068,us
"Chelsea, ME 04330, USA","04330, us",44.352,-69.692,us
"Diana, TX 75640, USA","75640, texas, united states",32.698,-94.707,us
"St Hedwig, TX 78152, USA","78152, texas, united states",29.421,-98.199,us
"Marianna, FL, USA","marianna, florida, united states",30.774,-85.227,us
"Abergavenny NP7, UK","abergavenny, wls",51.825,-3.019,gb
"Dayton, NV 89403, USA","89403, nevada, united states",39.207,-119.464,us
"Iowa Falls, IA 50126, USA","50126, iowa, united states",42.467,-93.218,us
"Stonecrest, GA, USA","stonecrest, ga",33.704,-84.131,us
"Newtown, VA 24450, USA","newtown, va 24450, usa",37.775,-79.469,gb
"Salem, IL, USA","salem, il 62881, usa",38.627,-88.946,us
"Bourton-on-the-Water, Cheltenham GL54, UK","bourton, gb",51.887,-1.763,gb
"Birdsnest, VA 23307, USA","23307, us",37.436,-75.859,us
"Wilmore, KY 40390, USA","40390, kentucky, united states",37.869,-84.679,us
"Yishun, Singapore","yishun, singapore",1.43,103.835,us
"Morriston, Swansea, UK","morriston, swansea, uk",51.662,-3.93,gb
"Jackson Heights, NY 11372, USA","11372, new york, united states",40.753,-73.88,us
"Monroe, LA 71203, USA","71203, us",32.566,-92.027,us
"Nobleton, ON, Canada","nobleton, ontario, canada",43.902,-79.653,ca
"Greenock, UK",greenockunited kingdom,55.956,-4.772,undefined
"Peralta, NM 87068, USA","87068, new mexico, united states",34.895,-106.664,us
"Winston-Salem, NC 27109, USA","27109, north carolina, united states",36.134,-80.278,us
"Dallas, TX 75252, USA","75252, us",33.001,-96.798,us
"La Vergne, TN 37086, USA","la vergne, tn 37086, usa",36.029,-86.55,us
"Lummi Island, Washington, USA","lummi island, wa",48.683,-122.65,us
"Spring, TX 77380, USA",77380,30.126,-95.467,"us,us"
"Cutler, IL 62238, USA","62238, us",38.041,-89.569,us
"Cardiff, CA 92007, USA","92007, california, united states",33.017,-117.273,us
"Acworth, GA, USA","acworth, georgia, united states",34.066,-84.677,us
"Grand Island, NE 68803, USA",68803,40.953,-98.418,undefined
"East Providence, RI 02914, USA","02914, rhode island, united states",41.816,-71.365,us
"Jackson, WY, USA","jackson, wy 83001, usa",43.48,-110.762,us
"Beaverton, OR, USA","beaverton, or",45.487,-122.804,us
"Cicero, IL, USA","cicero, illinois, united states",41.846,-87.754,us
"McCrory, AR 72101, USA","mccrory, arkansas, united states",35.256,-91.2,us
"Fairfield, NJ, USA","fairfield, new jersey, united states",40.884,-74.306,us
"Bramalea, Brampton, ON L6S, Canada","bramalea, brampton, on l6s, canada",43.73,-79.724,ca
"Southsea, Portsmouth, UK","southsea, portsmouth, uk",50.784,-1.086,gb
"Mackinac Island, MI 49757, USA","mackinac island, mi",45.849,-84.619,us
"Hesperus, CO 81326, USA","81326, colorado, united states",37.202,-108.095,us
"Jackson, WY 83001, USA","83001, wyoming, united states",43.469,-110.672,us
"New Castle County, DE, USA","new castle county, delaware, united states",39.539,-75.667,us
"Augusta, GA, USA","augusta ga, us",33.474,-82.011,us
"Dingley, Market Harborough LE16 8PG, UK","dingley, northamptonshire, uk",52.48,-0.868,gb
"Cincinnati, OH 45225, USA","45225, ohio, united states",39.147,-84.559,us
"Tallahassee, FL 32311, USA",32311,30.375,-84.165,"us,us"
"Meadow Woods, FL 32824, USA",meadow woods,28.386,-81.366,"us,us"
"STUYVSNT PLZ, NY 12203, USA","12203, new york, united states",42.682,-73.848,us
"Mercer, WI 54547, USA","mercer, wisconsin, united states",46.167,-90.063,us
"Callington PL17, UK","callington, eng",50.502,-4.316,gb
"Wichita, KS 67217, USA","67217, us",37.611,-97.362,us
"Sumrall, MS 39482, USA","39482, mississippi, united states",31.399,-89.587,us
"Henderson, MD 21640, USA","21640, maryland, united states",39.08,-75.819,us
"Richmond, IL 60071, USA","richmond, illinois, united states",42.476,-88.306,us
"Eugene, OR 97404, USA","97404, us",44.1,-123.131,us
"Montezuma, CO 80435, USA",80435,39.601,-105.853,"us,us"
"Utica, KY 42376, USA","42376, kentucky, united states",37.624,-87.082,us
"Ottawa County, MI, USA",ottawa county,42.953,-86.094,"us,us"
"Highlands County, FL, USA","highlands county, fl",27.34,-81.34,us
"Bloomfield, IN 47424, USA","47424, us",38.987,-86.862,us
"Wolverton, Milton Keynes, UK","wolverton, eng",52.062,-0.816,gb
"Ripon HG4, UK","ripon hg4, uk",54.136,-1.524,gb
"Garden Grove, CA 92843, USA",92843,33.768,-117.942,"us,us"
"North Bergen, NJ 07047, USA","north bergen, nj 07047, usa",40.805,-74.024,us
"Ocala, FL 34475, USA","34475, florida, united states",29.246,-82.16,us
"Broadway, VA 22815, USA","22815, virginia, united states",38.684,-78.861,us
"West Nyack, NY 10994, USA","10994new york, united states",41.094,-73.977,undefined
"Mont-Tremblant, QC, Canada","mont-tremblant, quebec, canada",46.118,-74.596,ca
"Steinbach, MB R5G, Canada","steinbach, mb r5g, canada",49.524,-96.684,ca
"New York, NY 10017, USA","10017, new york, united states",40.752,-73.97,us
"Clarksville, TN 37044, USA","37044, us",36.532,-87.352,us
"Indianapolis, IN 46203, USA","indianapolis, in 46203, usa",39.742,-86.124,us
"Chipley, FL 32428, USA","32428, us",30.682,-85.561,us
"Terre Haute, IN, USA","terre haute, us",39.467,-87.414,us
"Holtville, CA 92250, USA","92250, california, united states",32.767,-115.236,us
"Gwynn, VA, USA","gwynn, virginia, united states",37.512,-76.293,us
"Texas, USA",tx,31.969,-99.902,undefined
"Vancouver, BC V5X, Canada","vancouver, bc v5x, canada",49.216,-123.092,ca
"Green Forest, AR 72638, USA","72638, arkansas, united states",36.346,-93.379,us
"Ranchi, Jharkhand 834001, India","834001, jharkhand, india",23.378,85.319,ca
"Jackson, MS 39209, USA","39209, mississippi, united states",32.412,-90.29,us
"Warner Robins, GA 31088, USA","31088, us",32.59,-83.624,us
"Llanddew, Brecon LD3 9SS, UK","llanddew, powys, uk",51.967,-3.376,gb
"Memphis, TN 38120, USA","38120, tennessee, united states",35.121,-89.855,us
"Colorado Springs, CO 80909, USA",80909,38.856,-104.781,"us,us"
"Scottsboro, AL, USA","scottsboro, al, usa",34.672,-86.034,"us,us"
"Wahoo, NE 68066, USA","68066, nebraska, united states",41.19,-96.642,us
"Sandton, South Africa","johannesburg, sandton, south africa",-26.108,28.057,undefined
"South Elmsall, Pontefract WF9, UK","south elmsall, eng",53.597,-1.283,gb
"Elsberry, MO 63343, USA","63343, missouri, united states",39.172,-90.81,us
"Bremhill, Calne SN11 9LA, UK","bremhill, calne sn11 9la, uk",51.456,-2.032,gb
"Dola, WV 26386, USA","26386, west virginia, united states",39.398,-80.388,us
"Portsmouth, VA 23701, USA",23701,36.813,-76.37,"us,us"
"Kariega, South Africa","kariega, ec",-33.769,25.414,za
"Euharlee, GA 30120, USA","30120, us",34.158,-84.878,us
"Alameda, CA 94502, USA","94502, us",37.734,-122.248,us
"Gerrards Cross, UK","gerrards cross, buckinghamshire, england, united kingdom",51.582,-0.557,gb
"Fullerton, CA, USA","fullerton, ca",33.87,-117.924,us
"San Jose, CA 95118, USA","san jose, ca 95118, usa",37.259,-121.885,undefined
"Springfield, MA 01103, USA","01103, massachusetts, united states",42.105,-72.593,us
"Providence, UT 84332, USA","84332, utah, united states",41.703,-111.815,us
"Milwaukee, WI 53210, USA","53210, us",43.067,-87.975,us
"Proctor, MN 55810, USA","55810, minnesota, united states",46.745,-92.261,us
"Tiny Town, KY 42234, USA","42234, kentucky, united states",36.727,-87.162,us
"Youngsville, LA, USA","youngsville, us",30.1,-91.99,us
"BTLMT MESA, CO 81635, USA","81635, us",39.486,-108.095,us
"Penticton, BC, Canada","penticton, bc v2a, canada",49.499,-119.594,ca
"Flushing, MI 48433, USA",48433,43.069,-83.869,undefined
"Barberton, South Africa","barberton, south africa",-25.775,31.045,za
"Wichita, KS 67203, USA","67203, us",37.701,-97.368,us
"Springfield, OH, USA","springfield, oh, usa",39.924,-83.809,us
"Aurora, UT 84620, USA","84620, us",38.924,-111.964,us
"Ontario P0W, Canada","p0w, ontario, canada",48.924,-92.917,ca
"Lufkin, TX, USA","lufkin texas united states, us",31.335,-94.732,us
"Fincraigs Farm Cottages, Cupar KY15 4QQ, UK",ky154qq,56.393,-3.023,undefined
"Roodepoort, South Africa","roodepoort, gb",-26.12,27.901,gb
"Flushing, NY 11366, USA","11366, new york, united states",40.728,-73.787,us
"Vermont, USA",vermont,44.559,-72.578,undefined
"Lexington, MO 64067, USA","64067, missouri, united states",39.154,-93.845,us
"Dunston, Lincoln LN4, UK","dunston, lincoln ln4, uk",53.153,-0.41,gb
"Ringwood, UK","ringwood, uk",50.845,-1.789,gb
"Tembisa, South Africa"," tembisa, south africa",-26.009,28.218,undefined
"Thessalon, ON, Canada","thessalon, ontario",46.256,-83.556,ca
"Jacksonville, NC 28540, USA","28540, us",34.722,-77.493,us
"Aberdeen, MD 21001, USA",21001,39.512,-76.19,"us,us"
"Vehari, Vehari وہاڑی, Punjab, Pakistan","vehari, gb",30.044,72.344,gb
"Moro, IL 62067, USA","62067, illinois, united states",38.935,-89.991,us
"Brackley NN13, UK","brackley, eng",52.027,-1.143,gb
"Flandreau, SD 57028, USA","flandreau, sd 57028, usa",44.049,-96.595,us
"San Benito, TX 78586, USA","78586, us",26.099,-97.633,us
"Sonora, CA 95370, USA","95370, california, united states",37.977,-120.367,us
"New York, NY 10021, USA","10021, new york, united states",40.77,-73.958,us
"Wymondham, UK","wymondham uk, gb",52.569,1.115,gb
"Flandreau, SD 57028, USA","57028, south dakota, united states",44.094,-96.621,us
"Johannesburg, South Africa","johannesburg, gt",-26.204,28.047,za
"Mississauga, ON L5L, Canada","mississauga, on l5l, canada",43.544,-79.684,ca
"Doddiscombsleigh, Exeter EX6, UK","doddiscombsleigh, devon, uk",50.667,-3.624,gb
"Manningtree, UK","manningtree, essex, england, united kingdom",51.945,1.062,gb
"Mirfield, UK","mirfield, west yorkshire, england, united kingdom",53.68,-1.697,gb
"Seminole, OK 74868, USA","74868, oklahoma, united states",35.274,-96.642,us
"Carrickfergus, UK","carrickfergus, nir",54.726,-5.81,gb
"Malpas SY14, UK","malpas, cheshire west and chester, uk",53.019,-2.767,gb
"Antrim BT41, UK","antrim, nir",54.72,-6.207,gb
"Stansted CM24 8YD, UK","mountfitchet, stansted cm24 8yd, uk",51.905,0.195,gb
"Beccles NR34, UK","beccles, gb",52.459,1.566,gb
"Peru, IN 46970, USA",46970,40.77,-86.053,"us,us"
"Caledonia, ON N3W, Canada","n3w 0b8, ontario, canada",43.069,-79.956,undefined
"Clarence-Rockland, ON, Canada","clarence-rockland, on, canada",45.551,-75.28,ca
"Chicago, IL, USA",chicago,41.878,-87.63,"us,us"
"Markham, ON L6B 0J7, Canada","markham l6b0j7, canada",43.896,-79.219,undefined
"Durban Central, Durban, 4001, South Africa","durban central, za",-29.857,31.022,za
"Blackstone, VA 23824, USA","blackstone, va 23824, usa",37.08,-77.997,us
"CTY BY THE SE, TX 78336, USA","78336, texas, united states",27.947,-97.201,us
"Plainville, CT 06062, USA",plainville,41.676,-72.863,undefined
"Valencia Park, San Diego, CA 92114, USA","valencia park, california, united states",32.7,-117.076,us
"Stratford, NY 13470, USA","13470, new york, united states",43.169,-74.64,us
"Groblersdal, 0470, South Africa","groblersdal, lp",-25.167,29.399,za
"Scottsboro, AL, USA",scottsboro,34.672,-86.034,"us,us"
"Dean, TX 76305, USA","76305, texas, united states",33.979,-98.375,us
"Temecula, CA 92591, USA",92591,33.527,-117.115,"us,us"
"Thompson, OH 44086, USA","44086, ohio, united states",41.681,-81.064,us
United States,"h4x, us",37.09,-95.713,us
"Station Rd, Steeple Morden, Royston SG8 0NP, UK",sg8 0np ,52.06,-0.126,undefined
"Fairview Shores, FL, USA","fairview shores, florida, united states",28.591,-81.394,us
"Safety Harbor, FL, USA","safety harbor, fl",27.991,-82.693,us
"Atlanta, GA 30342, USA","30342, georgia, united states",33.886,-84.37,us
"Bishops Nympton, South Molton EX36 4PH, UK","bishops nympton, south molton ex36 4ph, uk",51,-3.771,gb
"Blackstone, VA 23824, USA","23824, virginia, united states",37.091,-77.997,us
"Brentwood, CA 94513, USA","brentwood, ca",37.932,-121.696,us
"Georgina, ON, Canada","georgina, ca",44.296,-79.436,ca
"Suffern, NY 10901, USA","suffern, ny",41.115,-74.15,us
"Lodi, NJ 07644, USA","lodi, new jersey, united states",40.882,-74.083,us
"Portland, OR 97086, USA","97086, oregon, united states",45.443,-122.513,us
"Atlanta, GA 30326, USA","30326, georgia, united states",33.849,-84.362,us
"San Antonio, TX 78218, USA",78218,29.49,-98.386,"us,us"
"Rushden, UK","rushden northants, gb",52.289,-0.6,gb
"St Cloud, FL 34773, USA","34773, florida, united states",28.146,-81.031,us
"Macungie, PA 18062, USA","macungie, pa 18062, usa",40.516,-75.555,us
"Calhoun City, MS 38916, USA","calhoun city, mississippi, united states",33.855,-89.311,us
"Chelmsley Wood, Birmingham B37, UK","birmingham chelmsley wood, gb",52.479,-1.733,gb
"Athlone, Cape Town, 7760, South Africa","athlone, western cape, south africa",-33.964,18.503,za
"West Seneca, NY 14206, USA","14206, new york, united states",42.882,-78.81,us
"Pembroke, UK","pembroke, pembrokeshire, uk",51.676,-4.918,gb
"Allentown, PA 18109, USA","18109, us",40.64,-75.44,us
"Commerce Charter Twp, MI 48382, USA","48382, us",42.593,-83.518,us
"Macy, NE 68039, USA","68039, nebraska, united states",42.12,-96.344,us
"Marquand, MO 63655, USA","63655, missouri, united states",37.34,-90.187,us
"Ruskin, FL, USA","ruskin, fl",27.721,-82.433,us
"Butler, WI 53007, USA","53007, wisconsin, united states",43.108,-88.073,us
"Gunter, TX 75058, USA",75058,33.455,-96.771,"us,us"
"Aliso Viejo, CA, USA","aliso viejo, ca",33.568,-117.726,us
"Southern Pines, NC, USA","southern pines, north carolina, united states",35.174,-79.392,us
"Cameron, TX 76520, USA","76520, texas, united states",30.827,-96.899,us
"Wymondham, UK","wymondham, england, united kingdom",52.569,1.115,us
"Canary Wharf, London E14, UK","london canary wharf, gb",51.505,-0.024,gb
"Grover, CO 80729, USA","80729, colorado, united states",40.914,-104.24,us
"Picton, Prince Edward, ON K0K 2T0, Canada","picton, ontario, canada",44.007,-77.142,ca
"Ashford District, UK","ashford district, gb",51.135,0.793,gb
"Thorold, ON, Canada","thorold, ontario, canada",43.124,-79.199,ca
"Burnaby, BC V3N 2K7, Canada","burnaby, bc v3n 2k7, canada",49.221,-122.927,ca
"Calgary, AB T2V, Canada","calgary, ab t2v, canada",50.974,-114.104,ca
"Inveraray, UK","inveraray, uk",56.232,-5.075,gb
"Cavan, Co. Cavan, Ireland",county cavan,53.977,-7.3,"gb,gb"
"Laurel, IN 47024, USA","47024, indiana, united states",39.491,-85.21,us
"Mmabatho, 2790, South Africa","mmabatho, 2790, south africa",-25.838,25.595,za
"Sherman, CT 06784, USA","06784, us",41.577,-73.501,us
"Rockville, MD 20854, USA",20854,39.041,-77.229,"us,us"
"Lambert, MS 38643, USA","38643, mississippi, united states",34.131,-90.243,us
"Perth, ON K7H, Canada","perth, on k7h, canada",44.898,-76.253,ca
"Orange, TX 77630, USA","77630, texas, united states",30.08,-93.845,us
"Newnan, GA 30265, USA",30265,33.393,-84.711,undefined
"Indianapolis, IN 46203, USA","46203, us",39.742,-86.124,us
"Topeka, KS 66615, USA","66615, kansas, united states",39.058,-95.888,us
"Durham, NC 27705, USA",27705,36.026,-78.985,"us,us"
"Camperdown, South Africa","camperdown, za",-29.728,30.532,za
"San Antonio, TX 78254, USA","san antonio, tx 78254, usa",29.533,-98.781,us
"Scottsburg, IN 47170, USA","scottsburg, indiana, united states",38.686,-85.77,us
"Oklahoma County, OK, USA","oklahoma county, oklahoma, united states",35.604,-97.352,us
"Heathrow, FL 32746, USA","32746, us",28.757,-81.351,us
"Ayrshire, UK","ayrshire, gb",55.365,-4.668,gb
"British Columbia V0T, Canada","v0t, british columbia, canada",53.219,-128.195,ca
"Jhansi, Uttar Pradesh, India","jhansi, uttar pradesh, india",25.448,78.568,us
"Tysons, VA, USA","tysons, virginia, united states",38.919,-77.231,us
"Cheney, WA 99004, USA","99004, washington, united states",47.487,-117.576,us
"Gqeberha, South Africa",egqeberha eastern cape south africa,-33.961,25.602,undefined
"Mbombela, South Africa","mbombela, mp",-25.475,30.969,za
"Clio, MI 48420, USA","48420, michigan, united states",43.175,-83.699,us
"Kathu, 8446, South Africa","kathu, northern cape, south africa",-27.7,23.051,za
"Brunswick, ME 04011, USA","brunswick, maine, united states",43.914,-69.967,us
"Lethbridge, AB T1H, Canada","lethbridge, ab t1h, canada",49.729,-112.805,ca
"East Kilbride, Glasgow, UK","east kilbride, glasgow, uk",55.764,-4.177,gb
"Cookley, Kidderminster, UK","cookley, eng",52.419,-2.234,gb
"Colorado Springs, CO 80920, USA","colorado springs, co 80920, usa",38.958,-104.781,us
"Bunn, NC 27508, USA","27508, us",35.956,-78.259,us
"KwaMashu, South Africa",kwamashu,-29.745,30.975,undefined
"Willowbrook, KS 67501, USA","67501, kansas, united states",37.985,-97.937,us
"Cape May, NJ 08204, USA",08204 united states,38.964,-74.909,undefined
"Oviedo, FL 32765, USA","32765, us",28.678,-81.197,us
"Skillman, NJ 08558, USA","08558, new jersey, united states",40.411,-74.722,us
"800283, Kaduna, Nigeria","kaduna, gb",10.502,7.441,gb
"Livingston, MT 59047, USA",59047,45.655,-110.509,"us,us"
"Glace Bay, NS B1A, Canada","glace bay, ns",46.197,-59.957,ca
"Hensonville, NY 12439, USA","12439, new york, united states",42.284,-74.212,us
"Langley, BC, Canada","langley, bc",49.104,-122.66,ca
"Port Talbot, UK","port talbot, uk",51.595,-3.784,gb
"Cape May, NJ 08204, USA","08204, usa",38.964,-74.909,undefined
"Miramar Ranch North, San Diego, CA, USA","miramar ranch north, california, united states",32.931,-117.094,us
"Coweta County, GA, USA","coweta county, ga",33.372,-84.732,us
"Columbus, IN, USA","columbus, in 47201, usa",39.201,-85.921,us
"Maitland, FL, USA","maitland, fl",28.628,-81.363,us
"Mills River, NC 28759, USA","28759, north carolina, united states",35.392,-82.573,us
"Montreal, QC H2E, Canada","h2e, quebec, canada",45.554,-73.613,ca
"Temple, TX 76504, USA","76504, us",31.199,-97.441,us
"Pretoria, South Africa","gauteng, republic of south africa",-25.748,28.229,za
"Osage Beach, MO, USA","osage beach, missouri, united states",38.15,-92.618,us
"Spennymoor DL16, UK","spennymoor, durham, england, united kingdom",54.698,-1.586,gb
"Truro, MA, USA","truro, ma, usa",42.003,-70.053,gb
"San Diego, CA 92115, USA","92115, us",32.761,-117.074,us
"1981 Moreland Pkwy, Annapolis, MD 21401, USA","1981 moreland pkwy, annapolis, md 21401, usa",38.983,-76.526,gb
"Truro, MA, USA",truro,42.003,-70.053,undefined
"41 Anderson St, Mbombela, 1201, South Africa","pretoria, mbombela ",-25.47,30.975,undefined
"Sun City Center, FL 33573, USA","sun city center, fl 33573, usa",27.718,-82.352,us
"Alta, IA 51002, USA","51002, iowa, united states",42.681,-95.331,us
"Bowie, TX 76230, USA","bowie, texas, united states",33.559,-97.849,us
"Bradford, TN 38316, USA","bradford, tn 38316, usa",36.076,-88.81,us
"Malta, NY 12020, USA","12020, us",43.003,-73.865,us
"Gormley, ON L4E, Canada","gormley, on l4e, canada",43.938,-79.437,ca
"Queens, NY, USA","queens county, new york, united states",40.728,-73.795,us
"Bergton, VA 22811, USA","22811, virginia, united states",38.789,-78.985,us
Sudan,"sudan, us",12.863,30.218,us
"Norwalk, OH, USA","norwalk, ohio, united states",41.243,-82.616,us
"Cannon AFB, NM 88101, USA","88101, us",34.527,-103.313,us
"Cloutsham St, Northampton NN1 3LL, UK","northampton, nn13ll ",52.243,-0.888,undefined
"Mansfield, OH, USA","mansfield, ohio",40.758,-82.515,us
"Clarence-Rockland, ON, Canada","clarence-rockland, on",45.551,-75.28,ca
"Prince Albert, SK, Canada","prince albert, sk, canada",53.203,-105.753,ca
"Ontario P0M, Canada","ontario p0m, canada",47.691,-82.721,ca
"San Luis Obispo, CA 93401, USA","93401, us",35.246,-120.597,us
"Painton, MO 63771, USA","63771, missouri, united states",37.083,-89.738,us
"Newcastle-under-Lyme, UK","newcastle-under-lyme, eng",53.013,-2.227,gb
"Burnsville, MN, USA","burnsville, mn",44.768,-93.278,us
"Bradford, TN 38316, USA","38316, tennessee, united states",36.062,-88.807,us
"Manor, TX 78653, USA","manor, tx",30.341,-97.557,us
"Cleveland, OH 44139, USA","44139, ohio, united states",41.383,-81.45,us
"Mendon, MI 49072, USA","mendon, michigan, united states",42.006,-85.45,us
"Puerto Vallarta, Jalisco, Mexico","puerto vallarta, jalisco, mexico",20.653,-105.225,ca
"Dodworth, Barnsley S75, UK","dodworth, eng",53.54,-1.524,gb
"Coal City, IL, USA","coal city, illinois, united states",41.288,-88.286,us
"Coal City, IL, USA","coal city, illinois, united states",41.288,-88.286,us
"Adrian, MO 64720, USA","64720, missouri, united states",38.384,-94.336,us
"Canton, OH, USA",canton ohio,40.799,-81.378,undefined
"Bridgeport, IL 62417, USA","62417, illinois, united states",38.694,-87.757,us
"Cherokee, NC 28719, USA","28719, north carolina, united states",35.575,-83.272,us
"Keller, TX 76248, USA",76248,32.926,-97.233,undefined
"Canton, WI 54868, USA","54868, wisconsin, united states",45.55,-91.749,us
"Helsinki, Finland","helsinki, gb",60.17,24.938,gb
"Cincinnati, OH 45229, USA","45229, ohio, united states",39.154,-84.486,us
"Kalona, IA 52247, USA","52247, iowa, united states",41.528,-91.734,us
"Newville, AL 36353, USA","36353, alabama, united states",31.477,-85.376,us
"Macon, GA 31217, USA","31217, georgia, united states",32.887,-83.486,us
"KwaMhlanga, South Africa",kwamhlanga,-25.432,28.713,undefined
"Newport, AR 72112, USA","newport, ar 72112, usa",35.605,-91.282,undefined
"Big Sky, MT, USA","big sky, montana, united states",45.262,-111.308,us
"Province of Vercelli, Italy","province of vercelli, gb",45.32,8.419,gb
"Tunica, MS 38676, USA","38676, mississippi, united states",34.707,-90.356,us
"Eckerty, IN 47116, USA","47116, indiana, united states",38.341,-86.611,us
"Weirton, WV 26062, USA","weirton, wv",40.419,-80.59,us
"Haverhill, MA, USA","haverhill, massachusetts, united states",42.776,-71.077,us
"Bel Air, MD 21015, USA","21015, maryland, united states",39.567,-76.306,us
"Prestbury, Cheltenham, UK","prestbury, gloucestershire, uk",51.912,-2.039,gb
"Andover, NJ 07821, USA","07821, us",40.969,-74.745,us
"Apsley, ON K0L, Canada","apsley, ontario, canada",44.753,-78.088,ca
"Westville, 3629, South Africa","westville, 3629, south africa",-29.832,30.93,za
United Kingdom,care homes uk,55.378,-3.436,undefined
"San Antonio, TX 78264, USA",78264,29.171,-98.506,"us,us"
"Silverhill, AL 36576, USA","36576, alabama, united states",30.52,-87.766,us
"Lititz, PA 17543, USA",17543,40.161,-76.294,"us,us"
"Thornhill, VA 22960, USA","22960, virginia, united states",38.229,-78.042,us
"The Hammocks, FL, USA","the hammocks, fl",25.67,-80.449,us
"Wrenthorpe, Wakefield WF2, UK",wrenthorp ,53.699,-1.524,undefined
"Stonehaven, UK","stonehaven, gb",56.964,-2.209,gb
"Chicago, IL 60625, USA",60625,41.971,-87.702,"us,us"
"Uttoxeter ST14, UK","uttoxeter, staffordshire, england, united kingdom",52.898,-1.866,gb
"Uttoxeter ST14, UK","uttoxeter st14, uk",52.898,-1.866,gb
"Normal, IL, USA","normal, illinois, united states",40.514,-88.991,us
"British Columbia V0J, Canada","british columbia v0j, canada",55.897,-126.735,ca
"Mulga, AL 35118, USA","35118, alabama, united states",33.549,-87.052,us
"South Kirkby, UK",south kirkby,53.592,-1.323,undefined
"Wymondham, UK","wymondham, eng",52.569,1.115,gb
"Farmington, AR 72730, USA","farmington, ar",36.042,-94.247,us
"Toronto, ON M3C, Canada","toronto, on m3c, canada",43.726,-79.341,ca
"Inglewood, CA 90302, USA","90302, us",33.974,-118.352,us
"Windsor, NY 13865, USA","windsor, new york, united states",42.076,-75.64,us
"Camp Verde, AZ 86322, USA","camp verde, arizona, united states",34.564,-111.854,us
"Sacramento, CA 95821, USA",95821,38.626,-121.388,undefined
"Bradford, ON L3Z, Canada","bradford, on l3z, canada",44.115,-79.566,ca
"Bronkhorstspruit, South Africa","bronkhorstspruit, south africa",-25.808,28.708,za
"Jamestown, NY 14701, USA","jamestown, new york, united states",42.097,-79.235,us
"Edmonds, WA, USA",edmonds,47.811,-122.377,"us,us"
"Beavertown, PA 17813, USA","17813, pennsylvania, united states",40.775,-77.183,us
"Houston, TX 77084, USA","houston, tx 77084, usa",29.83,-95.667,us
"Parcoal, WV 26288, USA","26288, west virginia, united states",38.545,-80.321,us
"Milton, ON, Canada","milton, on, canada",43.518,-79.877,ca
"Lafayette, IN 47904, USA","47904, indiana, united states",40.435,-86.877,us
"Progreso, Yucatan, Mexico","progreso, yucatan, mexico",21.281,-89.665,us
"Waco, TX 76708, USA","76708, us",31.619,-97.211,us
"Auburn, MA 01501, USA","01501, us",42.188,-71.845,us
"Moose Jaw, SK S6J, Canada","s6j, saskatchewan, canada",50.416,-105.536,ca
"West Yorkshire, UK",west yorkshire ,53.811,-1.763,undefined
"Wadeville, Germiston, 1422, South Africa",wadeville,-26.268,28.191,undefined
"Kuruman, 8460, South Africa","kuruman, za",-27.463,23.434,za
"Virginia, South Africa","virginia, south africa",-28.106,26.856,za
"Cincinnati, OH 45219, USA","45219, ohio, united states",39.127,-84.514,us
"Hubbard, OR 97032, USA","97032, oregon, united states",45.179,-122.798,us
"Worthing, SD 57077, USA","57077, south dakota, united states",43.341,-96.771,us
"Ishpeming, MI 49849, USA","49849, michigan, united states",46.455,-87.7,us
"Benzonia, MI 49616, USA","49616, michigan, united states",44.577,-86.073,us
"14988 Sand Canyon Ave, Irvine, CA 92618, USA",14988 sand canyon ave ,33.675,-117.757,-
"Sleepy Hollow, NY 10591, USA","sleepy hollow, ny 10591, usa",41.086,-73.858,us
"Detroit, MI 48225, USA","48225, michigan, united states",42.436,-82.934,us
"Waterloo, ON N2L, Canada",n2l,43.471,-80.549,"ca,ca"
"Mablethorpe LN12, UK","mablethorpe, gb",53.341,0.261,gb
"East Ham, London, UK","east ham, gb",51.533,0.05,gb
"Bulwer, 3244, South Africa","bulwer, kwazulu-natal, south africa",-29.808,29.76,za
"Plymstock, Plymouth PL9, UK","plymstock, plymouth pl9, uk",50.356,-4.09,gb
"Virginia, South Africa","virginia, free state, south africa",-28.106,26.856,za
"Allegan, MI 49010, USA","49010, michigan, united states",42.517,-85.89,us
"Roos, MI 48756, USA","48756, michigan, united states",44.203,-83.974,us
"Hollywood, FL, USA","hollywood, florida, united states",26.011,-80.149,us
"Tullos, LA 71479, USA","71479, louisiana, united states",31.857,-92.362,us
"Quitman, TX 75783, USA","quitman, texas, united states",32.796,-95.451,us
"Motherwell, UK","motherwell, north lanarkshire, scotland, united kingdom",55.783,-3.981,gb
"Buda, TX 78610, USA","buda, tx",30.082,-97.843,us
"Forfar DD8, UK","forfar dd8, uk",56.644,-2.889,gb
"Orangeburg, SC, USA","orangeburg, sc",33.492,-80.856,us
"Ohio's 7th Congressional District, OH, USA","ohio's 7th congressional district, ohio, united states",40.783,-82.302,us
"Sanders, AZ 86512, USA","sanders, arizona, united states",35.209,-109.329,us
"Vancouver, BC V6H, Canada","v6h, ca",49.255,-123.132,ca
"Herne Bay, UK","herne bay, eng",51.371,1.128,gb
"Bountiful, UT 84010, USA","bountiful, ut",40.889,-111.881,us
"Placitas, NM 87043, USA",87043,35.325,-106.417,"us,us"
"Carlsbad, CA, USA","carlsbad, california, united states",33.158,-117.351,us
"Amston, CT 06231, USA","06231, connecticut, united states",41.618,-72.367,us
"Franklin, NC 28734, USA","28734, us",35.171,-83.464,us
"Hawkinsville, GA 31036, USA","31036, georgia, united states",32.233,-83.464,us
"Mississauga, ON L5B, Canada","mississauga, on l5b, canada",43.582,-79.633,ca
"Huttonsville, WV 26273, USA","26273, west virginia, united states",38.654,-79.897,us
"North York, ON M3K, Canada","north york, on m3k, canada",43.737,-79.465,ca
"Cottonwood Heights, UT, USA",cottonwood heights,40.618,-111.816,"us,us"
"Drummondville, QC, Canada","drummondville, ca",45.88,-72.484,ca
"Haslet, TX 76052, USA","76052, texas, united states",32.984,-97.384,us
"Schnecksville, PA 18078, USA","schnecksville, pa",40.675,-75.618,us
"Canterbury, UK","canterbury, uk",51.28,1.079,gb
"Natrona Heights, PA 15065, USA","natrona heights, pa",40.623,-79.73,us
"Markdale, ON N0C 1H0, Canada","markdale, ontario, canada",44.319,-80.648,ca
"Sun City Center, FL 33573, USA","sun city center, florida, united states",27.718,-82.352,us
"Coconut Creek, FL, USA",coconut creek,26.252,-80.179,"us,us"
"Sun City, South Africa","sun city, za",-25.359,27.1,za
"Hazlet, NJ 07730, USA","hazlet, nj 07730, usa",40.431,-74.177,us
"St. Albert, AB T8N, Canada","st. albert, ab t8n, canada",53.634,-113.606,ca
"Sherwood, Nottingham, UK","sherwood , nottinghamshire, uk",52.98,-1.149,undefined
"Mt Sterling, OH 43143, USA","43143, ohio, united states",39.727,-83.315,us
"Aitkin, MN 56431, USA",56431,46.497,-93.652,"us,us"
"Senneville, QC H9X, Canada","h9x, quebec, canada",45.424,-73.932,ca
"Scranton, PA 18507, USA",18507,41.353,-75.685,"us,us"
"Belton, MO, USA","belton, missouri, united states",38.812,-94.532,us
"Bassett, WI 53101, USA","53101, us",42.541,-88.231,us
"Northford, CT 06472, USA","06472, connecticut, united states",41.374,-72.792,us
"Cedar Rapids, IA 52401, USA","52401, iowa, united states",41.975,-91.659,us
"Wadeville, Germiston, 1422, South Africa","wadeville, za",-26.268,28.191,za
"Vereeniging, South Africa","vereeniging , south africa",-26.597,27.901,undefined
"Milnerton, Cape Town, South Africa","milnerton, za",-33.866,18.534,za
"Cheadle, Stoke-on-Trent ST10, UK","cheadle, stoke-on-trent st10, uk",52.985,-1.987,gb
"Brampton, ON L6Y, Canada","brampton, on l6y, canada",43.647,-79.774,ca
"Sacramento, CA 95814, USA","95814, california, united states",38.582,-121.494,us
"ST CLR SHORES, MI 48080, USA","48080, us",42.464,-82.902,us
"White House, TN 37188, USA","37188, tennessee, united states",36.488,-86.691,us
"Salem, OR, USA","salem, or, usa",44.943,-123.035,us
"Miramichi, NB, Canada","miramichi, nb, canada",47.03,-65.506,ca
"Fortson, GA 31808, USA","31808, georgia, united states",32.642,-85.003,us
"Mmabatho, 2790, South Africa","mmabatho, south africa",-25.838,25.595,undefined
"White Salmon, WA 98672, USA","98672, washington, united states",45.847,-121.455,us
"Port Angeles, WA, USA","port angeles, us",48.118,-123.431,us
"Fredericton, NB, Canada","fredericton, nb e3a, canada",45.964,-66.643,ca
"Prince Frederick, MD, USA","prince frederick, us",38.54,-76.584,us
"Temple, TX 76502, USA","76502, us",31.118,-97.417,us
"Yoff, Dakar, Senegal","yoff, dakar region, senegal",14.747,-17.49,za
"Augusta, ME 04330, USA","augusta, maine, united states",44.311,-69.779,us
"Calgary, AB T1X, Canada","calgary, ab t1x, canada",50.912,-113.755,ca
"Biscayne Park, FL 33161, USA","33161, us",25.891,-80.182,us
"Mansfield, TX 76063, USA",76063,32.563,-97.142,"us,us"
"Aubrey, TX, USA","aubrey, texas, united states",33.304,-96.986,us
"Brownsburg, IN 46112, USA","brownsburg, in 46112, usa",39.843,-86.398,us
"Cullowhee, NC, USA","cullowhee, nc 28723, usa",35.314,-83.177,us
"Rainhill, UK","rainhill, uk",53.416,-2.765,gb
"Camrose, AB T4V, Canada","camrose, ab t4v, canada",53.018,-112.83,ca
"Fayetteville, GA 30215, USA",30215,33.382,-84.459,undefined
"Wilmslow SK9, UK","wilmslow sk9, uk",53.328,-2.229,gb
"Cochrane, AB, Canada","cochrane, ab",51.192,-114.467,ca
"Belsize Park, London NW3, UK","belsize park, gb",51.548,-0.167,gb
"Camden, NJ, USA","camden, nj",39.926,-75.12,us
"Jasper, IN, USA","jasper, in",38.391,-86.931,us
"Ontario, Canada","on, canada",51.254,-85.323,undefined
"Collingdale, PA 19023, USA","19023, pennsylvania, united states",39.92,-75.268,us
"Lithonia, GA 30058, USA","30058, us",33.734,-84.112,us
"Morrow, OH 45152, USA","45152, ohio, united states",39.359,-84.122,us
"Burleson, TX 76028, USA",76028,32.53,-97.287,"us,us"
"Sparta, IL 62286, USA","62286, illinois, united states",38.105,-89.738,us
"Lewisham Ct, Morley, Leeds LS27 8QA, UK","leeds, ls27 8qa",53.745,-1.597,undefined
"Caponhall Dr, Tranent EH33 2HE, UK",eh332he ,55.941,-2.961,undefined
"Fort Ritner, IN 47421, USA","fort ritner, in 47421, usa",38.773,-86.281,us
"Rose City, MI 48654, USA","48654, michigan, united states",44.438,-84.144,us
"Brookston, IN 47923, USA","47923, indiana, united states",40.614,-86.922,us
"Washington, KS 66968, USA","66968, kansas, united states",39.827,-97.071,us
"Plymstock, Plymouth PL9, UK","plymstock, plymouth, uk",50.356,-4.09,gb
"Roseville, OH 43777, USA","roseville, ohio, united states",39.807,-82.071,us
"South End, Halifax, NS, Canada","south end, halifax, ns, canada",44.635,-63.579,ca
"Howard County, TX, USA","howard county, texas, united states",32.288,-101.434,us
"Leeds, UK","leeds, ",53.801,-1.549,undefined
"Evanston, IL, USA","evanston, illinois, united states",42.045,-87.688,us
"Oakland, ME 04963, USA","oakland, maine, united states",44.54,-69.722,us
"Lytham, Lytham Saint Annes FY8, UK","lytham, gb",53.737,-2.967,gb
"Brighton, ME 04912, USA","04912, maine, united states",44.968,-69.687,us
"Hollywood, CA 90068, USA","90068, california, united states",34.124,-118.329,us
"Bridgnorth, UK","bridgnorth, shropshire, uk",52.534,-2.425,gb
"Cumming, GA, USA","cumming, ga",34.207,-84.14,us
"Gatineau, QC J8T, Canada","gatineau, qc j8t, canada",45.476,-75.701,ca
"Morris, CT 06763, USA","06763, connecticut, united states",41.691,-73.218,us
"Red Oak, IA 51566, USA","red oak, ia 51566, usa",41.017,-95.221,us
"100 Nicolls Rd, Stony Brook, NY 11794, USA","stony brook university, new york, united states",40.905,-73.124,us
"Staten Island, NY 10305, USA","10305, new york, united states",40.594,-74.071,us
"Mt Pleasant, WI, USA","mount pleasant, wisconsin, united states",42.737,-87.884,us
"Wellington, FL, USA","wellington, fl",26.662,-80.268,us
"East London, UK","north east london, gb",51.556,0.066,gb
"Pietermaritzburg, South Africa","pietermaritzburg msunduzi, za",-29.601,30.379,za
"Alpena, MI 49707, USA","alpena, us",45.062,-83.433,us
